X,Y,OBJECTID,StationName,WXID,ObservedDate,NESSID,NWSID,Elevation,SiteDescription,Latitude,Longitude,State,County,Agency,Region,Unit,SubUnit,Status,RainAccumulation,WindSpeedMPH,WindDirDegrees,AirTempStandPlace,FuelTemp,RelativeHumidity,BatteryVoltage,FuelMoisture,WindDirPeak,WindSpeedPeak,SolarRadiation,StationID
-119.61131,37.7300300000001,12,YNP PORTABLE,18053678,2023/07/24 20:02:04+00,32D3E21C,,3633,,37.73003,-119.61131,CA,Mariposa,NPS,PACIFIC WEST,YOSEMITE NP,,A,1.7 inches,4 mph,207 degrees ,92 deg. F,111 deg. F ,29 % ,13.1 volts,7.2 (unk),218 degrees,9 mph,780 w/m2,18053677
-89.79556,30.6619400000001,15,BOGUE CHITTO,18770453,2023/07/24 17:12:44+00,32B108FA,227701,126,,30.66194,-89.79556,MS,Pearl River,FWS,REGION 4,BIG BRANCH NWR,SE La Refuges Comple,A,30.49 inches,1 mph,64 degrees ,90 deg. F,105 deg. F ,43 % ,12.3 volts,9 (unk),51 degrees,5 mph,756 w/m2,18770452
-104.7195,44.5817900000001,43,DEVILS TOWER,17137191,2023/07/24 17:23:04+00,FA64F588,480606,3872,Devils Tower residence area,44.58179,-104.7195,WY,Crook,NPS,MIDWEST,DEVILS TOWER NM,NORTHERN GREAT PLAIN,A,15.48 inches,3 mph,222 degrees ,93 deg. F,100 deg. F ,30 % ,13.3 volts,9.1 (unk),247 degrees,7 mph,734 w/m2,17137190
-122.94511,39.80742,49,MENDOCINO PASS,17209645,2023/07/24 20:04:34+00,32715230,041018,5382,"SITE IS JUST NORTH OF MENDOCINO PASS. AREA IS IN A SMALL
CLEARING WITH THE MAST JUST ABOVE THE TREES.  STATION SITS
ON A SOUTH SLOPE 50 YDS OF 2 TRACK.",39.80742,-122.94511,CA,Mendocino,USFS,05,MENDOCINO NF,COVELO RD,A,19.83 inches,10 mph,271 degrees ,70 deg. F,84 deg. F ,37 % ,14.1 volts,6.8 (unk),279 degrees,13 mph,991 w/m2,17209642
-111.09911,44.6659700000001,59,HEBGEN LAKE,17036072,2023/07/24 18:39:33+00,323FC0E6,244603,6700,"site is surrounded by lodgepole pine,vegitation is sparsegrass with barren sandy soil",44.66597,-111.09911,MT,Gallatin,USFS,01,Custer Gallatin NF,HEBGAN LAKE RD,A,14.78 inches,2 mph,264 degrees ,81 deg. F,NO DATA,36 % ,13.3 volts,NO DATA,333 degrees,6 mph,727 w/m2,17036069
-121.1977,44.9254800000001,90,MUTTON MOUNTAIN,16781365,2023/07/24 18:34:34+00,5211B19E,350917,4011,"SITE IS SITUATED IN A SMALL CLEARING WITHIN THE MUTTON MTN
RANGE OVERLOOKING A VALLEY TO THE SW. MUTTON MTN IS 2 MILES
TO THE W. MUTTON MTN SPRING IS 4 MILES TO THE NE. SHANIKO
BUTTE IS 4 MILES TO THE N. VEGETATION IS PINE W/SMALL SHRUBS
AREA BIA FREQS = S-172.425, R-171.775, CODE-4321",44.92548,-121.1977,OR,Wasco,BIA,Northwest,Warm Springs Agency,,A,5.25 inches,6 mph,292 degrees ,71 deg. F,NO DATA,28 % ,13.4 volts,NO DATA,217 degrees,14 mph,939 w/m2,16781363
-152.13611,69.3700000000001,109,UMIAT AIRFIELD,17475619,2023/07/24 18:23:54+00,326B17F6,500104,267,,69.37,-152.13611,AK,North Slope,BLM,R11 Alaska,ALASKA FIRE SERVICE,,A,6.67 inches,4 mph,89 degrees ,66 deg. F,NO DATA,71 % ,14.1 volts,NO DATA,96 degrees,6 mph,404 w/m2,17475619
-112.23886,38.9792400000001,124,BLACK CEDAR,16945201,2023/07/24 18:27:03+00,323517DC,421805,6493,"SITE LOCATED ON SSW SLOPE WITH JUNIPER,PINION PINE,GRASSAND SAGE. IS APPROX 3000' FROM MTN. TOP. MTNS. TO THE S ANDN 2-3 MILES.FIRE WEATHER FORECAST ZONE: 432",38.97924,-112.23886,UT,Millard,USFS,04,FISHLAKE NF,,A,16.45 inches,3 mph,282 degrees ,87 deg. F,96 deg. F ,25 % ,13.2 volts,4.4 (unk),239 degrees,11 mph,684 w/m2,16945200
-76.617,40.4590000000001,135,INDIANTOWN RUN,19103243,2023/07/24 17:13:44+00,32A0FD1A,,710,,40.459,-76.617,PA,Lebanon,S&PF,PENNSYLVANIA,,,A,24.58 inches,5 mph,194 degrees ,80 deg. F,92 deg. F ,68 % ,13.8 volts,13.4 (unk),142 degrees,11 mph,744 w/m2,19103243
-116.1882,44.9429000000001,139,SKI HILL,16945975,2023/07/24 19:58:44+00,325E554C,101223,5297,FIRE WEATHER FORECAST ZONE:  401,44.9429,-116.1882,ID,Valley,USFS,04,PAYETTE NF,McCALL,A,18.53 inches,4 mph,234 degrees ,79 deg. F,82 deg. F ,20 % ,13.5 volts,5.6 (unk),228 degrees,10 mph,174 w/m2,16945974
-117.136,32.7830000000001,140,MISSION VALLEY,17568281,2023/07/24 19:50:14+00,CA801094,045747,300,,32.783,-117.136,CA,San Diego,S&PF,CALIFORNIA,,San Diego Gas & Elec,A,18.53 inches,8 mph,231 degrees ,79 deg. F,94 deg. F ,63 % ,13.7 volts,9.4 (unk),229 degrees,14 mph,1036 w/m2,17568280
-138.21463,59.09063,141,DECEPTION HILLS,18734610,2023/07/24 18:25:05+00,3962A300,,2190,,59.09063,-138.21463,AK,Skagway-Hoonah-Angoon,NPS,ALASKA,SEAN Southeast AK Nt,,A,NO DATA,NO DATA,NO DATA,NO DATA,NO DATA,NO DATA,NO DATA,NO DATA,NO DATA,NO DATA,NO DATA,18734608
-112.38345,37.3310500000001,150,KFO PORTABLE 2,18377234,2023/07/24 18:38:04+00,AAB1460C,,6436,"Between Thompson Wash and Bald Knoll, in the Upper Kanab Creek watershed.",37.33105,-112.38345,UT,Kane,BLM,R7 Upper CO Basin,KANAB,Kanab Field Office,A,73.59 inches,7 mph,205 degrees ,85 deg. F,NO DATA,23 % ,13 volts,NO DATA,243 degrees,15 mph,903 w/m2,18377233
-148.81775,61.7337200000001,174,LITTLE GRANITE CREEK,17483556,2023/07/24 19:56:33+00,9A70305C,500975,939,,61.73372,-148.81775,AK,Anchorage,S&PF,ALASKA,DNR,,A,3.95 inches,3 mph,209 degrees ,66 deg. F,NO DATA,66 % ,13.6 volts,NO DATA,223 degrees,11 mph,542 w/m2,17483555
-123.3198,40.2507400000001,204,RUTH,17305382,2023/07/24 17:23:04+00,3285F5E6,040508,2732,"Valley station located near the Ruth Forest Service Station. Ground cover consists of grass, manzanita, pine and fir.",40.25074,-123.3198,CA,Trinity,USFS,05,SIX RIVERS NF,MAD RIVER,A,67.98 inches,5 mph,354 degrees ,75 deg. F,85 deg. F ,32 % ,13.5 volts,10.4 (unk),349 degrees,9 mph,NO DATA,17305381
-119.963,39.2728300000001,229,KNOX 2,17705497,2023/07/24 17:19:14+00,91C0052A,260117,7568,,39.27283,-119.963,NV,Washoe,S&PF,NEVADA,,,A,11 inches,4 mph,208 degrees ,72 deg. F,82 deg. F ,34 % ,13.7 volts,6 (unk),258 degrees,19 mph,654 w/m2,17705497
-77.32307,34.8249900000001,230,HOFMANN FOREST,17274670,2023/07/24 17:10:34+00,3281B3D6,319507,42,Station is located in clearing of Pine Plantation,34.82499,-77.32307,NC,Onslow,S&PF,NORTH CAROLINA,DIV. OF FOREST RES.,D4 NEW BERN,A,26.07 inches,1 mph,248 degrees ,89 deg. F,110 deg. F ,58 % ,13.2 volts,8.1 (unk),303 degrees,7 mph,743 w/m2,17274670
-88.8001,36.16083,242,GREENFIELD,17393707,2023/07/24 19:05:14+00,02600176,401801,499,,36.16083,-88.8001,TN,Weakley,S&PF,TENNESSEE,DIVISION OF FORESTRY,West,A,33.59 inches,4 mph,51 degrees ,92 deg. F,NO DATA,50 % ,13.4 volts,NO DATA,20 degrees,10 mph,728 w/m2,17393707
-91.54333,46.3441700000001,258,BARNES,17450531,2023/07/24 17:06:14+00,53704070,470202,1210,,46.34417,-91.54333,WI,Bayfield,S&PF,WISCONSIN,DNR,Park Falls DG,A,15.27 inches,2 mph,257 degrees ,78 deg. F,90 deg. F ,59 % ,13.3 volts,10.9 (unk),294 degrees,7 mph,660 w/m2,17450530
-90.71164,35.5679200000001,263,POINSETT,17433622,2023/07/24 17:10:44+00,0720468A,032801,389,Site is located in a field just north-east of Harrisburg behind the county landfill.,35.56792,-90.71164,AR,Poinsett,S&PF,ARKANSAS,ARKANSAS FORESTRY,,A,32.16 inches,4 mph,37 degrees ,91 deg. F,106 deg. F ,57 % ,13.4 volts,9.8 (unk),38 degrees,8 mph,822 w/m2,17433621
-123.92829,40.7199400000001,271,KNEELAND,17503005,2023/07/24 19:55:39+00,CA2AB768,040429,2737,"FDRA - 100, Site is on ridgetop at the Kneeland Helitack Basesurrounded by a hardwood/conifer component.",40.71994,-123.92829,CA,Humboldt,S&PF,CALIFORNIA,CDF,HUMBOLDT-DEL NORTE U,A,50.7 inches,6 mph,341 degrees ,69 deg. F,82 deg. F ,54 % ,13.4 volts,9.7 (unk),307 degrees,15 mph,915 w/m2,17503003
-120.59449,39.7794700000001,285,DENTEN CREEK,18371092,2023/07/24 18:34:14+00,AAB03266,040921,5149,The DENTEN RAWS sits above the Mohawk Valley in a natural opening surrounded by mixed conifer on a south facing aspect.  It is approximately 1/2 to 3/4 of a mile north of HWY 70 and 2 miles south of Penman Peak.,39.77947,-120.59449,CA,Plumas,USFS,05,PLUMAS NF,,A,2.24 inches,3 mph,183 degrees ,78 deg. F,85 deg. F ,16 % ,13.3 volts,5.1 (unk),187 degrees,10 mph,443 w/m2,18371092
-84.51111,46.2408300000001,289,RUDYARD,17281059,2023/07/24 17:14:55+00,0800B04C,201505,700,,46.24083,-84.51111,MI,Chippewa,S&PF,MICHIGAN,DEPT OF NATURAL RES.,UPPER PENINSULA,A,8.02 inches,5 mph,294 degrees ,76 deg. F,NO DATA,61 % ,13.5 volts,NO DATA,266 degrees,9 mph,597 w/m2,17281058
-120.72028,48.3469400000001,305,STEHEKIN-AIRSTRIP,17266974,2023/07/24 20:01:23+00,FA411054,452121,1230,,48.34694,-120.72028,WA,,NPS,PACIFIC WEST,NORTH CASCADES NP,,A,13.56 inches,6 mph,345 degrees ,75 deg. F,80 deg. F ,40 % ,13.1 volts,5.4 (unk),22 degrees,22 mph,227 w/m2,17266974
-90.3805599999999,31.9497200000001,352,COPIAH,17365794,2023/07/24 17:09:33+00,3910363A,225502,150,,31.94972,-90.38056,MS,Copiah,S&PF,MISSISSIPPI,FORESTRY COMMISSION,Fire Services,A,37.3 inches,4 mph,317 degrees ,89 deg. F,NO DATA,45 % ,13.4 volts,NO DATA,316 degrees,12 mph,1006 w/m2,17365792
-77.11099,35.09686,374,NEW BERN,17084449,2023/07/24 17:17:55+00,407020F4,319004,20,,35.09686,-77.11099,NC,,S&PF,NORTH CAROLINA,DIV. OF FOREST RES.,D-4 NEW BERN,A,12.79 inches,0 mph,200 degrees ,89 deg. F,99 deg. F ,56 % ,13.2 volts,11.1 (unk),222 degrees,2 mph,890 w/m2,17084448
-114.09621,46.9268700000001,398,SMOKE USFS R2-924,18724355,1900/01/01 00:00:00+00,396240F2,,3200,,46.92687,-114.09621,CO,Jefferson,USFS,02,,,D,NO DATA,NO DATA,NO DATA,NO DATA,NO DATA,NO DATA,NO DATA,NO DATA,NO DATA,NO DATA,NO DATA,18724355
-121.584,40.0686600000001,404,CARPENTER RIDGE,17097524,2023/07/24 19:54:48+00,CA2132D4,041213,4816,,40.06866,-121.584,CA,Butte,S&PF,CALIFORNIA,CDF,BUTTE UNIT,A,54.73 inches,6 mph,195 degrees ,81 deg. F,95 deg. F ,18 % ,13.3 volts,4.1 (unk),221 degrees,19 mph,1016 w/m2,17097522
-117.5001,33.75474,410,TEMESCAL 2  (CNF),17156668,2023/07/24 18:41:36+00,3242E0C0,045635,1748,Ridgeline above the Glen Ivy Resort. Short hike up from their water tank.,33.75474,-117.5001,CA,Riverside,USFS,05,CLEVELAND NF,TRABUCO R.D.,A,28.95 inches,10 mph,32 degrees ,98 deg. F,124 deg. F ,31 % ,13.1 volts,4.3 (unk),30 degrees,15 mph,861 w/m2,17156667
-122.83093,40.4378400000001,411,ARBUCKLE BASIN,17089841,2023/07/24 19:54:18+00,CA2AF462,040632,2452,Final sections of roads are extreme slopes and difficult.Parking for only two vehicles max at site.Contact George Cassel (530)225-2411 to arrange visit.,40.43784,-122.83093,CA,Shasta,S&PF,CALIFORNIA,CDF,SHASTA-TRINITY UNIT,A,29.97 inches,10 mph,116 degrees ,85 deg. F,115 deg. F ,26 % ,13.4 volts,3.7 (unk),100 degrees,19 mph,859 w/m2,17089839
-111.24447,45.45964,412,SHENANGO,16918063,1900/01/01 00:00:00+00,323FD390,244601,5391,VALLEY SITEFIRE WX ZONE 123,45.45964,-111.24447,MT,Gallatin,USFS,01,Custer Gallatin NF,BOZEMAN RD,A,9.21 inches,1 mph,143 degrees ,51 deg. F,NO DATA,87 % ,12.9 volts,NO DATA,17 degrees,8 mph,0 w/m2,16918063
-121.80694,37.39833,419,SANJOSE,17535249,2023/07/24 19:52:24+00,32905540,,675,,37.39833,-121.80694,CA,Santa Clara,S&PF,CALIFORNIA,CDF,SAN JOSE FIRE DEPT,A,27.52 inches,6 mph,241 degrees ,83 deg. F,105 deg. F ,30 % ,13.2 volts,9.1 (unk),232 degrees,11 mph,957 w/m2,17535249
-154.0764,62.7238800000001,423,FAREWELL,16787244,2023/07/24 19:53:45+00,3243C4D6,500624,723,,62.72388,-154.0764,AK,Yukon-Koyukuk,BLM,R11 Alaska,ALASKA FIRE SERVICE,WASHINGTON D.C.,A,4.87 inches,2 mph,272 degrees ,75 deg. F,NO DATA,55 % ,13.6 volts,NO DATA,279 degrees,10 mph,164 w/m2,16787243
-117.41203,33.6471100000001,440,EL CARISO,17018418,2023/07/24 17:20:34+00,3230A392,045619,2733,ridgetop,33.64711,-117.41203,CA,Riverside,USFS,05,CLEVELAND NF,TRABUCO RD,A,31.24 inches,3 mph,144 degrees ,97 deg. F,105 deg. F ,28 % ,13.2 volts,8.2 (unk),41 degrees,8 mph,708 w/m2,17018417
-114.15731,46.71853,451,FIRE EFFECTS PORTABLE #2,17501988,2023/07/24 18:26:56+00,328E632C,,3966,Luebrech Experimental Forest.  Snowmelt study.,46.71853,-114.15731,MT,Missoula,USFS,01,Missoula Fire Lab,,A,17.06 inches,3 mph,221 degrees ,80 deg. F,NO DATA,30 % ,13.8 volts,NO DATA,160 degrees,6 mph,732 w/m2,17501988
-150.09257,61.4222,502,PT MAC,17542429,2023/07/24 19:50:33+00,32750776,500973,136,,61.4222,-150.09257,AK,Matanuska-Susitna,S&PF,ALASKA,ALASKA FIRE SERVICE,,A,6 inches,6 mph,155 degrees ,68 deg. F,NO DATA,63 % ,13.4 volts,NO DATA,146 degrees,11 mph,548 w/m2,17542428
-83.4269399999999,31.10972,528,ADEL,17327903,2023/07/24 20:04:23+00,3100E40E,098401,232,,31.10972,-83.42694,GA,Cook,S&PF,GEORGIA,GEORGIA FORESTRY COM,,A,36.66 inches,5 mph,166 degrees ,92 deg. F,110 deg. F ,57 % ,13.1 volts,7.6 (unk),177 degrees,10 mph,807 w/m2,17327903
-111.32278,39.3094400000001,542,JOES VALLEY,17141544,2023/07/24 17:16:24+00,323C376C,421602,8700,Open SW Aspect area in the PJ/Pine to Spruce/Fir Alpinetransition zone.,39.30944,-111.32278,UT,Sanpete,USFS,04,MANTI LA SAL NF,MANTI DIVISION,A,4.95 inches,7 mph,130 degrees ,78 deg. F,88 deg. F ,24 % ,13.3 volts,5.6 (unk),134 degrees,12 mph,754 w/m2,17141544
-120.78437,40.78169,575,GRASSHOPPER,17093936,2023/07/24 19:47:44+00,CA2090D6,040721,6158,,40.78169,-120.78437,CA,Lassen,S&PF,CALIFORNIA,CDF,LASSEN-MODOC UNIT,A,15.28 inches,6 mph,206 degrees ,81 deg. F,97 deg. F ,11 % ,13.4 volts,4.1 (unk),233 degrees,18 mph,1080 w/m2,17093934
-111.35944,45.16583,578,YELLOW MULE,17081126,1900/01/01 00:00:00+00,323FF57C,244606,9200,High elevation location with subalpine fir and whitebarkpine species prevalent.  Site located near USFS recreationtrail.,45.16583,-111.35944,MT,Gallatin,USFS,01,Custer Gallatin NF,BOZEMAN RD,A,5.82 inches,5 mph,329 degrees ,45 deg. F,NO DATA,81 % ,12.8 volts,NO DATA,355 degrees,6 mph,0 w/m2,17081126
-120.75278,42.7219400000001,584,SUMMER LAKE,17370918,2023/07/24 18:38:54+00,326E25AC,353429,5085,Station is located on a bench midslope facing east. The siteis within a 2002 fire. Vegetation is grass and low evergreenbrush with a few scattered trees.,42.72194,-120.75278,OR,Lake,USFS,06,Fremont-Winema NF,,A,4.06 inches,11 mph,228 degrees ,78 deg. F,NO DATA,30 % ,13.3 volts,NO DATA,229 degrees,27 mph,845 w/m2,17370917
-122.22083,37.8650000000001,607,OAKLAND NORTH,17063962,2023/07/24 18:33:34+00,CA4A06D4,043402,1403,"RIDGETOPSTATION LOCATED WITHIN ""KPFA"" RADIO TOWER COMPOUND ON RIDGETOP EAST OF OAKLAND CITY.",37.865,-122.22083,CA,Alameda,S&PF,CALIFORNIA,Oakland,,A,40.96 inches,7 mph,193 degrees ,66 deg. F,85 deg. F ,67 % ,13.7 volts,10 (unk),202 degrees,13 mph,839 w/m2,17063962
-123.32129,39.6679600000001,630,RODEO VALLEY,17102132,2023/07/24 18:28:54+00,CA4A334E,041015,2428,Site is located off hwy 162 between hwy 101 and covelo.The site is on a knoll in an open area with no obstructions.,39.66796,-123.32129,CA,Mendocino,S&PF,CALIFORNIA,CDF,MENDOCINO UNIT,A,52.36 inches,6 mph,360 degrees ,76 deg. F,87 deg. F ,32 % ,13.4 volts,9.5 (unk),29 degrees,12 mph,770 w/m2,17102130
-81.1199599999999,32.17166,683,SAVANNAH NWR,17359138,2023/07/24 18:23:41+00,8376F068,384201,7,,32.17166,-81.11996,GA,,FWS,REGION 4,SAVANNAH NWR,,A,23.83 inches,0 mph,23 degrees ,95 deg. F,NO DATA,52 % ,13.1 volts,NO DATA,225 degrees,0 mph,1039 w/m2,17359136
-118.41257,34.1248600000001,692,BEVERLY HILLS,17117239,2023/07/24 19:55:04+00,CA41E68E,045442,1260,,34.12486,-118.41257,CA,Los Angeles,S&PF,CALIFORNIA,BEVERLY HILLS,,A,34.61 inches,3 mph,177 degrees ,95 deg. F,125 deg. F ,38 % ,13.2 volts,5.4 (unk),177 degrees,13 mph,850 w/m2,17117239
-116.28322,43.57167,693,DENNIS TECH CENTER,18739729,2023/07/24 19:46:25+00,AAB6F7B6,,2759,Station is located directly in front of the Dennis Tech Center main door entrance (south side). RH and FM will be directly affected by sprinkler system.,43.57167,-116.28322,ID,Ada,BLM,R9 Columbia Pac NW,BLM/NIFC,,A,NO DATA,NO DATA,NO DATA,NO DATA,NO DATA,NO DATA,NO DATA,NO DATA,NO DATA,NO DATA,NO DATA,18739729
-156.90232,21.1408300000001,699,PUU ALII,18150933,2023/07/24 17:22:41+00,32D6062E,,3805,,21.14083,-156.90232,HI,Kalawao,NPS,PACIFIC WEST,KALAUPAPA NHP,,A,.52 inches,3 mph,49 degrees ,59 deg. F,NO DATA,97 % ,12.4 volts,NO DATA,70 degrees,12 mph,18 w/m2,18150930
-68.64167,44.06667,702,ISLE AU HAUT,16910378,2023/07/24 18:38:04+00,FA670202,170131,0,,44.06667,-68.64167,ME,Knox,NPS,NORTHEAST,ACADIA NP,,A,29.56 inches,5 mph,247 degrees ,83 deg. F,78 deg. F ,61 % ,13.2 volts,16.3 (unk),232 degrees,12 mph,773 w/m2,16910377
-122.5999,41.67576,709,BRAZIE RANCH,17097258,2023/07/24 19:54:39+00,CA2046BE,040242,3090,,41.67576,-122.5999,CA,Siskiyou,S&PF,CALIFORNIA,CDF,SISKIYOU UNIT,A,12.76 inches,7 mph,95 degrees ,84 deg. F,104 deg. F ,21 % ,13.3 volts,4.6 (unk),71 degrees,17 mph,898 w/m2,17097256
-122.80449,40.7864200000001,718,TRINITY CAMP,17104433,2023/07/24 18:28:23+00,CA20D3DC,040516,3308,This RAWS station sits on an exposed granite hill above theTrinity River Conservation Camp. It is also about 75 yardsfrom a USFS helicopter landing pad.,40.78642,-122.80449,CA,Trinity,S&PF,CALIFORNIA,CDF,SHASTA-TRINITY UNIT,A,32.89 inches,4 mph,183 degrees ,76 deg. F,93 deg. F ,31 % ,13.6 volts,5 (unk),203 degrees,10 mph,749 w/m2,17104431
-88.1652799999999,34.7775,724,TISHOMINGO,17402653,2023/07/24 17:14:14+00,391096C2,220601,300,,34.7775,-88.16528,MS,Tishomingo,S&PF,MISSISSIPPI,FORESTRY COMMISSION,Fire Services,A,29.03 inches,5 mph,107 degrees ,86 deg. F,NO DATA,54 % ,13.3 volts,NO DATA,110 degrees,10 mph,782 w/m2,17402652
-116.69944,32.6675000000001,732,BARRETT,17568018,2023/07/24 19:50:03+00,CA8003E2,,2395,,32.6675,-116.69944,CA,San Diego,S&PF,CALIFORNIA,,San Diego Gas & Elec,A,27.17 inches,10 mph,276 degrees ,97 deg. F,117 deg. F ,28 % ,13.2 volts,5.3 (unk),288 degrees,17 mph,962 w/m2,17568017
-112.44782,37.1388700000001,752,KFO PORTABLE 3,18376976,2023/07/24 18:38:14+00,AAB1557A,,5846,Located between the Vermillion Cliffs and the White Cliffs near Center Knoll.,37.13887,-112.44782,UT,Kane,BLM,R7 Upper CO Basin,KANAB,KANAB,A,36.68 inches,8 mph,226 degrees ,89 deg. F,NO DATA,21 % ,12.9 volts,NO DATA,208 degrees,16 mph,910 w/m2,18376976
-89.7966699999999,33.9858300000001,753,YALLABUSHA,17444636,2023/07/24 17:09:14+00,3910C6BE,222101,370,,33.98583,-89.79667,MS,Yalobusha,S&PF,MISSISSIPPI,FORESTRY COMMISSION,Fire Services,A,35.66 inches,3 mph,137 degrees ,90 deg. F,NO DATA,59 % ,13.6 volts,NO DATA,45 degrees,8 mph,790 w/m2,17444635
-115.5505,44.3855600000001,765,BEARSKIN CREEK,16941628,2023/07/24 17:06:14+00,3241D254,101221,7137,STATION SITS ON THE TOP OF A MAIN TIMBERED RIDGE THATRUNS FROM THE NORTH DOWN TO THE SOUTH.  DEEP VALLEYSRUNNING NORTH TO SOUTH ON THE EAST AND WEST SIDES OF SITE.,44.38556,-115.5505,ID,Valley,USFS,04,BOISE NF,LOWMAN RD,A,12.18 inches,10 mph,150 degrees ,73 deg. F,NO DATA,30 % ,13.4 volts,NO DATA,129 degrees,20 mph,326 w/m2,16941627
-117.48194,48.66389,766,TEEPEE SEED ORCHARD,17020466,2023/07/24 19:53:54+00,3231D7F8,453414,3280,"Located in the Teepee Seed Orchard on the Sullivan LakeRanger District, Colville National Forest.",48.66389,-117.48194,WA,Pend Oreille,USFS,06,COLVILLE NF,SULLIVAN LAKE RD,A,15.18 inches,7 mph,234 degrees ,86 deg. F,NO DATA,21 % ,13.3 volts,NO DATA,218 degrees,18 mph,900 w/m2,17020461
-121.29538,37.3292700000001,768,DIABLO GRANDE,17103911,2023/07/24 20:00:34+00,CA2302BA,043502,1861,Site is in transition zone between grassland/agriculture andOak woodland.,37.32927,-121.29538,CA,Stanislaus,S&PF,CALIFORNIA,CDF,SANTA CLARA,A,28.31 inches,10 mph,97 degrees ,89 deg. F,107 deg. F ,22 % ,13.5 volts,3.4 (unk),102 degrees,13 mph,956 w/m2,17103909
-118.39406,34.7283200000001,790,POPPY PARK,17137978,2023/07/24 19:56:33+00,CA41B6F2,045440,2760,"Located with the maintenance yard of Antelope Valley California Poppy Reserve SNR. Open field, native grasses.",34.72832,-118.39406,CA,Los Angeles,S&PF,CALIFORNIA,LOS ANGELES COUNTY,,A,16.38 inches,15 mph,214 degrees ,99 deg. F,115 deg. F ,22 % ,13.2 volts,3.9 (unk),225 degrees,23 mph,977 w/m2,17137977
-115.60981,42.7255900000001,807,SAYLOR CREEK BOMB RANGE,18059057,2023/07/24 20:02:21+00,32D403DA,,3608,Located in a crested wheatgrass field near the West Gate of Saylor Creek Bombing Range and Browns Gulch.,42.72559,-115.60981,ID,Owyhee,DOD,,,MTN. HOME,A,9.15 inches,4 mph,245 degrees ,80 deg. F,NO DATA,86 % ,13 volts,NO DATA,216 degrees,16 mph,175 w/m2,18059057
-100.90133,46.1602500000001,817,TATANKA PRAIRIE,17543714,2023/07/24 18:25:04+00,3280E150,328501,2316,,46.16025,-100.90133,ND,Sioux,BIA,Great Plains,Standing Rock Agency,,A,11.35 inches,11 mph,135 degrees ,87 deg. F,NO DATA,53 % ,13.2 volts,NO DATA,111 degrees,19 mph,776 w/m2,17543712
-83.29462,33.64727,850,DYAR PASTURE,18248465,2023/07/24 17:19:33+00,32D3B260,093502,481,,33.64727,-83.29462,GA,Greene,USFS,08,CHATTAHOOCHEE&OCONEE,OCONEE,A,32.87 inches,3 mph,194 degrees ,84 deg. F,107 deg. F ,70 % ,13.2 volts,7.4 (unk),213 degrees,8 mph,945 w/m2,18248465
-102.06205,46.3620700000001,859,WILLIAMS LOOKOUT,19420686,2023/07/24 17:11:54+00,3281A0A0,324101,2375,,46.36207,-102.06205,ND,Hettinger,NPS,MIDWEST,THEODORE ROOSEVELT,,A,8.94 inches,14 mph,131 degrees ,86 deg. F,94 deg. F ,54 % ,13.2 volts,10.6 (unk),122 degrees,20 mph,735 w/m2,19420685
-121.63516,39.5898300000001,861,OPENSHAW,17091637,2023/07/24 19:54:59+00,CA215732,41215,268,,39.58983,-121.63516,CA,Butte,S&PF,CALIFORNIA,CDF,BUTTE UNIT,A,28.56 inches,11 mph,178 degrees ,89 deg. F,99 deg. F ,29 % ,13.2 volts,6 (unk),188 degrees,20 mph,927 w/m2,17091636
-88.1686099999999,36.06611,876,CAMDEN TOWER,17396772,2023/07/24 17:07:15+00,0260C468,404001,512,,36.06611,-88.16861,TN,Benton,S&PF,TENNESSEE,DIVISION OF FORESTRY,West,A,31.05 inches,4 mph,145 degrees ,90 deg. F,NO DATA,57 % ,13.2 volts,NO DATA,168 degrees,11 mph,750 w/m2,17396772
-146.92606,64.6541700000001,880,LYNX,19036941,2023/07/24 17:09:44+00,32B661FA,,2134,,64.65417,-146.92606,AK,Fairbanks North Star,DOD,USA,FORT WAINWRITE,FAIRBANKS NORTH STAR,A,2.65 inches,1 mph,21 degrees ,70 deg. F,NO DATA,73 % ,13.5 volts,NO DATA,12 degrees,3 mph,84 w/m2,19036939
-115.39722,48.4305600000001,893,ZONOLITE,17521426,2023/07/24 17:06:54+00,B92002B8,,4204,,48.43056,-115.39722,MT,,OTHR,NOT APPLICABLE,NOT APPLICABLE,,A,NO DATA,NO DATA,NO DATA,NO DATA,NO DATA,NO DATA,NO DATA,NO DATA,NO DATA,NO DATA,NO DATA,17521426
-115.35639,43.44631,913,NRAWS 13 (LESTER CREEK),17956422,2023/07/24 19:52:12+00,15D07B16,,4904,,43.44631,-115.35639,ID,Elmore,NWS,,,Boise WFO,A,0 inches,1 mph,331 degrees ,68 deg. F,67 deg. F ,58 % ,12.7 volts,9.1 (unk),311 degrees,7 mph,123 w/m2,17956421
-111.964,37.05143,938,KFO PORTABLE 5,18668045,2023/07/24 17:09:44+00,AAB0929E,,5370,,37.05143,-111.964,UT,Kane,BLM,R7 Upper CO Basin,KANAB,KANAB FIELD OFFICE,A,0 inches,6 mph,269 degrees ,88 deg. F,NO DATA,20 % ,13 volts,NO DATA,254 degrees,15 mph,671 w/m2,18668045
-115.65667,48.9166700000001,952,YAAK (UPPER FORD),17235491,2023/07/24 17:06:41+00,3273A740,240120,3000,,48.91667,-115.65667,MT,Lincoln,USFS,01,KOOTENAI NF,,A,16.3 inches,1 mph,220 degrees ,75 deg. F,87 deg. F ,37 % ,13.7 volts,11 (unk),227 degrees,5 mph,329 w/m2,17235489
-122.69747,41.1094800000001,970,SCORPION,16966199,2023/07/24 18:31:54+00,32421044,040517,3365,"MIDSLOPE SITE,",41.10948,-122.69747,CA,Trinity,USFS,05,SHASTA TRINITY NF,Weaverville,A,44.35 inches,4 mph,202 degrees ,78 deg. F,102 deg. F ,37 % ,13.3 volts,6.2 (unk),171 degrees,10 mph,864 w/m2,16966199
-118.42007,44.4399300000001,971,NRAWS 17 (ELKHORN RPTR),18489361,1900/01/01 00:00:00+00,15C120DC,,6748,"Sits on top of repeater site, mostly open and clear.  Mounted on old style tower with 45 degree bars. Heavy forest surrounds the area.",44.43993,-118.42007,OR,Baker,NWS,,,Boise WFO,A,1.4 inches,0 mph,140 degrees ,59 deg. F,NO DATA,76 % ,12.7 volts,NO DATA,150 degrees,0 mph,NO DATA,18489361
-91.11697,45.43778,980,LADYSMITH,17452579,2023/07/24 17:05:33+00,53710180,471601,1162,,45.43778,-91.11697,WI,Rusk,S&PF,WISCONSIN,DNR,Park Falls DG,A,15.19 inches,4 mph,262 degrees ,80 deg. F,93 deg. F ,59 % ,13.3 volts,10.4 (unk),252 degrees,8 mph,637 w/m2,17452578
-120.36469,38.3423300000001,987,BLUE MTN LOOKOUT,18975248,2023/07/24 18:33:44+00,32B5385A,043212,6043,,38.34233,-120.36469,CA,Calaveras,S&PF,CALIFORNIA,CDF,,A,50.1 inches,6 mph,141 degrees ,76 deg. F,75 deg. F ,26 % ,13.4 volts,6.4 (unk),126 degrees,14 mph,694 w/m2,18975246
-109.83889,37.85472,996,NORTH LONG POINT,16945716,2023/07/24 18:39:03+00,3241174A,422710,8680,FIRE WX FORECAST ZONE: 434,37.85472,-109.83889,UT,San Juan,USFS,04,MANTI LA SAL NF,MONTICELLO,A,0 inches,4 mph,207 degrees ,83 deg. F,99 deg. F ,21 % ,13.5 volts,4.2 (unk),178 degrees,16 mph,912 w/m2,16945715
-122.14472,37.7861100000001,1002,OAKLAND SOUTH,17064214,2023/07/24 18:33:03+00,CA4A15A2,043403,1095,,37.78611,-122.14472,CA,Alameda,S&PF,CALIFORNIA,Oakland,,A,42.55 inches,6 mph,227 degrees ,66 deg. F,91 deg. F ,65 % ,13.7 volts,10.3 (unk),239 degrees,12 mph,816 w/m2,17064214
-156.61389,62.8227800000001,1019,FLAT,17073445,2023/07/24 19:51:53+00,33904794,500625,1480,,62.82278,-156.61389,AK,Yukon-Koyukuk,S&PF,ALASKA,STATE OF ALASKA,,A,5.02 inches,6 mph,190 degrees ,74 deg. F,NO DATA,39 % ,13.4 volts,NO DATA,206 degrees,13 mph,553 w/m2,17073441
-108.6107,42.9489,1045,SHARPNOSE,18749967,2023/07/24 19:46:44+00,AAB716BE,481412,5555,Station sits on a bench 2 miles south west from the Little Wind river in Wyoming Big Sage Brush habitat.,42.9489,-108.6107,WY,Fremont,BIA,Rocky Mountain,Wind River Agency,,A,5.13 inches,2 mph,262 degrees ,94 deg. F,NO DATA,19 % ,13.2 volts,NO DATA,128 degrees,13 mph,665 w/m2,18749966
-87.20219,37.2734,1048,GREENVILLE,17361703,2023/07/24 19:55:54+00,403046CE,151191,552,,37.2734,-87.20219,KY,,S&PF,KENTUCKY,DIVISION OF FORESTRY,Kentucky Division of,A,30.91 inches,6 mph,305 degrees ,92 deg. F,101 deg. F ,51 % ,13.2 volts,9.4 (unk),311 degrees,17 mph,704 w/m2,17361702
-120.70522,38.9041700000001,1057,BALD MTN LOC,16952132,2023/07/24 18:36:14+00,32398322,042603,4613,RIDGE. Bald Mtn. Lookout.,38.90417,-120.70522,CA,El Dorado,USFS,05,ELDORADO NF,CAMINO DISPATCH,A,61.63 inches,6 mph,202 degrees ,80 deg. F,91 deg. F ,18 % ,13.3 volts,4.6 (unk),184 degrees,16 mph,853 w/m2,16952126
-117.80969,44.84286,1061,NRAWS 16 (BAKER AIRPORT),18489106,2023/07/22 20:13:23+00,AA11405A,,3363,,44.84286,-117.80969,OR,Baker,NWS,,,Boise WFO,A,NO DATA,NO DATA,NO DATA,NO DATA,NO DATA,NO DATA,NO DATA,NO DATA,NO DATA,NO DATA,NO DATA,18489106
-123.18897,41.2690900000001,1085,BLUE RIDGE (KNF),17207846,2023/07/24 19:51:53+00,3272B6CC,040203,5859,,41.26909,-123.18897,CA,Siskiyou,USFS,05,KLAMATH NF,SALMON RIVER,A,16.94 inches,5 mph,92 degrees ,71 deg. F,117 deg. F ,32 % ,13.4 volts,3.4 (unk),77 degrees,9 mph,NO DATA,17207846
-122.45462,41.4789200000001,1107,WEED AIRPORT,17104937,2023/07/24 19:48:14+00,CA2055C8,040228,2929,Located at the Weed Airport adjacent to I-5 and its RestArea. Generally upland subdued grassland/low shrubs.,41.47892,-122.45462,CA,Siskiyou,S&PF,CALIFORNIA,CDF,SISKIYOU UNIT,A,14.88 inches,4 mph,0 degrees ,86 deg. F,104 deg. F ,26 % ,13.2 volts,5.3 (unk),2 degrees,9 mph,892 w/m2,17104935
-84.8099999999999,36.535,1111,PICKETT STATE FOREST,19343889,2023/07/24 18:43:24+00,32A1E244,400801,1720,,36.535,-84.81,TN,Fentress,S&PF,TENNESSEE,DIVISION OF FORESTRY,CUMBERLAND,A,31.69 inches,2 mph,273 degrees ,84 deg. F,NO DATA,50 % ,13.3 volts,NO DATA,309 degrees,7 mph,793 w/m2,19343888
-97.11481,30.04828,1112,ROCKY HILL,19175436,2023/07/24 18:39:44+00,32D0BBBC,,443,,30.04828,-97.11481,TX,Bastrop,S&PF,TEXAS,,BASTROP,A,21.22 inches,4 mph,188 degrees ,85 deg. F,115 deg. F ,37 % ,13.1 volts,8 (unk),234 degrees,13 mph,864 w/m2,19175435
-105.98556,39.5600000000001,1147,SODA CREEK,16931118,2023/07/24 19:56:24+00,323591C8,051703,9578,Station is behind keystone ranch.Station located in a sagebrush meadow near lodgepole andaspen forest. located back in the timber at mid slope. goodair flow to the east and south.,39.56,-105.98556,CO,,USFS,02,WHITE RIVER NF,DILLON RD,A,9.69 inches,9 mph,319 degrees ,80 deg. F,NO DATA,21 % ,13.3 volts,NO DATA,13 degrees,14 mph,979 w/m2,16931117
-123.36917,42.4997500000001,1161,MERLIN,16856118,2023/07/24 19:58:28+00,324D05A0,353122,1144,"STATION SITS IN AN OPEN WOODED AREA, HARDWOODS, PINE AND FIRS, WITH A GRASS FORST LITTER BASE.",42.49975,-123.36917,OR,Josephine,S&PF,OREGON,DEPT OF FORESTRY,SWO-GRANTS PASS,A,15.84 inches,1 mph,77 degrees ,86 deg. F,NO DATA,22 % ,13.2 volts,NO DATA,318 degrees,7 mph,930 w/m2,16856118
-88.82893,35.37132,1172,CHICKASAW SF,17396521,2023/07/24 17:07:04+00,0260B2F8,408001,439,,35.37132,-88.82893,TN,Hardeman,S&PF,TENNESSEE,DIVISION OF FORESTRY,West,A,38.11 inches,1 mph,155 degrees ,90 deg. F,NO DATA,56 % ,13.2 volts,NO DATA,77 degrees,6 mph,828 w/m2,17396521
-117.43583,48.49028,1204,TACOMA CREEK,16969771,2023/07/24 20:03:54+00,3262A224,453413,3240,"FIRE WX FORECAST ZONE: 686Located on spur ridge, in a plantation, trees 10-15 feettall.",48.49028,-117.43583,WA,Pend Oreille,USFS,06,COLVILLE NF,NEWPORT RD,A,15.17 inches,2 mph,120 degrees ,85 deg. F,96 deg. F ,27 % ,13.2 volts,5.1 (unk),173 degrees,11 mph,798 w/m2,16969769
-89.45444,30.45111,1238,HANCOCK,17365281,2023/07/24 17:09:24+00,391010D6,228002,98,,30.45111,-89.45444,MS,Hancock,S&PF,MISSISSIPPI,FORESTRY COMMISSION,Fire Services,A,29.57 inches,1 mph,200 degrees ,91 deg. F,NO DATA,45 % ,12.5 volts,NO DATA,275 degrees,9 mph,840 w/m2,17365280
-112.52472,37.0372800000001,1239,KFO PORTABLE 4,18418447,2023/07/24 18:30:14+00,3266579A,,4926,"Located in the Kanab, Utah city limits at the BLM Kanab Field Office Headquarters building.",37.03728,-112.52472,UT,Kane,BLM,R7 Upper CO Basin,KANAB,,A,79.09 inches,4 mph,226 degrees ,91 deg. F,NO DATA,23 % ,12.9 volts,NO DATA,228 degrees,12 mph,878 w/m2,18418447
-116.20861,43.56528,1250,SMOKE 69,18141475,1900/01/01 00:00:00+00,32D5C43E,,2865,,43.56528,-116.20861,ID,,USFS,WO,,,D,NO DATA,NO DATA,NO DATA,NO DATA,NO DATA,NO DATA,NO DATA,NO DATA,NO DATA,NO DATA,NO DATA,18141475
-82.10472,26.4408300000001,1252,DING DARLING NWR,17530903,1900/01/01 00:00:00+00,3279E518,,10,,26.44083,-82.10472,FL,Lee,FWS,REGION 4,DING DARLING NWR,,A,4.97 inches,5 mph,253 degrees ,80 deg. F,NO DATA,79 % ,13 volts,NO DATA,259 degrees,9 mph,0 w/m2,17530903
-123.08431,39.8249700000001,1258,EEL RIVER (MNF),16959534,2023/07/24 19:45:34+00,3241B7B2,041005,1500,"FIRE WX FORECAST ZONE: 557
station sits at the mouth of two major drainages(Eel & Black",39.82497,-123.08431,CA,Mendocino,USFS,05,MENDOCINO NF,COVELO,A,31.66 inches,3 mph,243 degrees ,89 deg. F,103 deg. F ,26 % ,13.4 volts,6.4 (unk),316 degrees,9 mph,NO DATA,16959533
-108.21972,45.1039200000001,1275,HILLSBORO,17379879,2023/07/24 18:29:54+00,FA643096,245609,3986,"Unit sits on a flat mesa top in a grass opening in an open
Juniper stand.  The mesa top is a ridge that extends towards
the Bighorn Canyon.  Unit is unsheltered from wind or sun.",45.10392,-108.21972,MT,Carbon,NPS,INTERMOUNTAIN,BIG HORN NRA,,A,7.64 inches,10 mph,175 degrees ,93 deg. F,103 deg. F ,21 % ,13.2 volts,5.2 (unk),185 degrees,17 mph,832 w/m2,17379878
-123.46944,44.9250000000001,1300,ROCKHOUSE 1,17176862,2023/07/24 17:12:54+00,600113E2,351710,1797,,44.925,-123.46944,OR,Polk,S&PF,OREGON,DEPT OF FORESTRY,,A,42.95 inches,2 mph,247 degrees ,61 deg. F,63 deg. F ,79 % ,13.7 volts,14.6 (unk),229 degrees,6 mph,211 w/m2,17176861
-80.61972,38.63611,1307,FLATWOODS,17467929,2023/07/24 13:17:25+00,9000650A,463301,1642,"Moved from airport location on 6/2/16, due to construction of a hanger right next to station.  Now at end of Stoney Creek Road on the Elk River WMA (state property).",38.63611,-80.61972,WV,Braxton,S&PF,WEST VIRGINIA,NOT APPLICABLE,D3,A,NO DATA,NO DATA,NO DATA,NO DATA,NO DATA,NO DATA,NO DATA,NO DATA,NO DATA,NO DATA,NO DATA,17467929
-114.22682,46.43958,1316,SMITH CREEK,17233959,2023/07/24 17:09:35+00,323F7368,242912,5650,Mid slope site.,46.43958,-114.22682,MT,Ravalli,USFS,01,BITTERROOT NF,STEVENSVILLE RD,A,11.73 inches,3 mph,155 degrees ,82 deg. F,NO DATA,23 % ,13.3 volts,NO DATA,175 degrees,5 mph,469 w/m2,17233958
-118.97241,48.1362300000001,1330,NESPELEM,16783424,2023/07/24 19:57:24+00,52119772,452009,1900,"LOCATED ABOVE COLVILLE INDIAN AGENCY HEADQUARTERS, SOUTH OF
NESPELEM.  THERE IS A LONG VALLEY WEST OF THE SITE THAT RUNS
NORTH TO SOUTH.  FOREST LANDS ARE EAST AND TO THE NORTH APPR
5 TO 7 MILES AWAY.",48.13623,-118.97241,WA,Okanogan,BIA,Northwest,Colville Agency,,A,12.44 inches,13 mph,189 degrees ,87 deg. F,NO DATA,16 % ,13.2 volts,NO DATA,216 degrees,24 mph,876 w/m2,16783422
-118.41858,34.3532500000001,1369,CAMP 9,17110596,2023/07/24 19:55:14+00,CA41A584,045441,4000,Open ridgetop north of San Fernando Valley.,34.35325,-118.41858,CA,Los Angeles,S&PF,CALIFORNIA,LOS ANGELES COUNTY,,A,36.67 inches,11 mph,132 degrees ,91 deg. F,103 deg. F ,31 % ,13.1 volts,6.2 (unk),135 degrees,17 mph,415 w/m2,17110595
-110.84944,44.45667,1373,OLD FAITHFUL,17544458,2023/07/24 18:25:31+00,328F72A0,,7360,,44.45667,-110.84944,WY,Teton,NPS,INTERMOUNTAIN,YELLOWSTONE NP,,A,19.74 inches,.9 mph,233.10001 degrees ,71.7 deg. F,NO DATA,53.6 % ,14 volts,NO DATA,NO DATA,1.6 mph,499.10001 w/m2,17544458
-114.09675,46.9266400000001,1385,SMOKE 215,18514946,1900/01/01 00:00:00+00,32D33474,,3201,,46.92664,-114.09675,MT,Missoula,USFS,WO,MTDC,,D,NO DATA,NO DATA,NO DATA,NO DATA,NO DATA,NO DATA,NO DATA,NO DATA,NO DATA,NO DATA,NO DATA,18514946
-120.08499,35.18523,1426,BRANCH MOUNTAIN,16959283,2023/07/24 18:35:33+00,3247F476,044901,3770,Site sits 50' NE from Branch Mountain Lookout in an areasurrounded with 15'-20' pine trees.,35.18523,-120.08499,CA,San Luis Obispo,USFS,05,LOS PADRES NF,SANTA LUCIA RD,A,0 inches,4 mph,134 degrees ,91 deg. F,105 deg. F ,16 % ,13.3 volts,4.7 (unk),99 degrees,9 mph,840 w/m2,16959283
-101.06287,45.61427,1439,GRAND RIVER,17679899,2023/07/24 17:06:05+00,AAC207A4,390301,2176,,45.61427,-101.06287,SD,Corson,BIA,Great Plains,Standing Rock Agency,,A,8.58 inches,14 mph,101 degrees ,85 deg. F,NO DATA,60 % ,13.2 volts,NO DATA,94 degrees,19 mph,778 w/m2,17679896
-82.07456,29.2555300000001,1451,INDIAN LAKE SF,19784965,2023/07/21 18:31:35+00,32B8E386,083503,72,,29.25553,-82.07456,FL,Marion,S&PF,FLORIDA,DIVISION OF FORESTRY,,A,NO DATA,NO DATA,NO DATA,NO DATA,NO DATA,NO DATA,NO DATA,NO DATA,NO DATA,NO DATA,NO DATA,19784965
-112.04716,37.07737,1461,BUCKSKIN,19052555,2023/07/24 18:36:44+00,32B6A4E4,,5725,,37.07737,-112.04716,UT,Kane,BLM,R7 Upper CO Basin,KANAB,Kanab Headquarters,A,67.65 inches,0 mph,0 degrees ,86 deg. F,NO DATA,24 % ,12 volts,NO DATA,0 degrees,0 mph,650 w/m2,19052555
-78.64944,39.2991700000001,1462,AUGUSTA,17467165,2023/07/22 20:15:45+00,9000A014,461102,1130,,39.29917,-78.64944,WV,Hampshire,S&PF,WEST VIRGINIA,NOT APPLICABLE,D2,A,NO DATA,NO DATA,NO DATA,NO DATA,NO DATA,NO DATA,NO DATA,NO DATA,NO DATA,NO DATA,NO DATA,17467165
-117.54889,34.6343600000001,1476,EL MIRAGE,16808992,2023/07/24 18:26:03+00,3259E4F6,,2880,"SITE SITS 5 MILES WEST OF SHADOW MTNS. AND 1 MILE EAST OF
EL MIRAGE LAKE IN A FENCED BLM COMPOUND. FENCE HAS MOTION
SENSORS ATTACHED TO TOP RAIL.",34.63436,-117.54889,CA,San Bernardino,BLM,R8 Lower CO Basin,CA DESERT DISTRICT,WASHINGTON D.C.,A,3.76 inches,NO DATA,NO DATA,97 deg. F,NO DATA,18 % ,13.2 volts,NO DATA,NO DATA,NO DATA,748 w/m2,16808992
-147.57444,64.8486100000001,1478,ALASKA TEST,19579396,2023/07/24 13:20:30+00,AAAE5476,,449,,64.84861,-147.57444,AK,Fairbanks North Star,BLM,R11 Alaska,ALASKA FIRE SERVICE,,A,NO DATA,NO DATA,NO DATA,NO DATA,NO DATA,NO DATA,NO DATA,NO DATA,NO DATA,NO DATA,NO DATA,19579396
-120.27339,39.3381900000001,1479,TAHOE DONNER,18975766,2023/07/24 18:33:24+00,32B52B2C,041810,7399,,39.33819,-120.27339,CA,Placer,S&PF,CALIFORNIA,CDF,,A,14.17 inches,11 mph,208 degrees ,65 deg. F,71 deg. F ,28 % ,13.7 volts,6.6 (unk),182 degrees,30 mph,590 w/m2,18975765
-87.28306,36.0650000000001,1496,BURNS,17396257,2023/07/24 17:06:54+00,0260A18E,402102,706,,36.065,-87.28306,TN,Dickson,S&PF,TENNESSEE,DIVISION OF FORESTRY,Highland Rim,A,35.17 inches,2 mph,240 degrees ,88 deg. F,NO DATA,56 % ,13.6 volts,NO DATA,336 degrees,7 mph,827 w/m2,17396257
-66.28806,18.00667,1511,CAMP SANTIAGO,17473817,2023/07/24 17:09:35+00,78A0007E,516301,279,,18.00667,-66.28806,PR,,S&PF,PUERTO RICO,,,A,13.89 inches,0 mph,116 degrees ,93 deg. F,NO DATA,47 % ,13.5 volts,NO DATA,79 degrees,0 mph,998 w/m2,17473817
-80.55009,40.5587600000001,1522,HILLCREST WMA,17466400,2023/07/24 17:16:30+00,9000139A,460101,1142,"Open grassy area on Hillcrest WMA, Smith Road. Can drive right to station.  Situated east of old farm Silo.",40.55876,-80.55009,WV,Hancock,S&PF,WEST VIRGINIA,NOT APPLICABLE,D1,A,20.35 inches,5 mph,251 degrees ,83 deg. F,NO DATA,52 % ,13.7 volts,NO DATA,209 degrees,11 mph,682 w/m2,17466400
-155.66961,19.1007500000001,1532,LOWER KAHUKU CS,18151441,2023/07/24 17:23:00+00,32D620C2,,3129,,19.10075,-155.66961,HI,Hawaii,NPS,PACIFIC WEST,HAWAII VOLCANOES NP,,A,6.72 inches,1 mph,359 degrees ,56 deg. F,NO DATA,99 % ,12.7 volts,NO DATA,13 degrees,3 mph,17 w/m2,18151439
-76.27833,34.9563900000001,1548,CEDAR ISLAND,17497621,2023/07/24 18:25:55+00,323112E6,319604,3,,34.95639,-76.27833,NC,Carteret,FWS,REGION 4,CEDAR ISLAND NWR,,A,37.05 inches,3 mph,126 degrees ,80 deg. F,NO DATA,84 % ,13.3 volts,NO DATA,106 degrees,8 mph,397 w/m2,17497621
-73.0350299999999,42.89036,1575,WOODFORD STATE PARK,17379372,1900/01/01 00:00:00+00,3335A5F0,431303,2317,,42.89036,-73.03503,VT,Bennington,USFS,09,GRN MTN & FINGER LKS,,A,NO DATA,NO DATA,NO DATA,NO DATA,NO DATA,NO DATA,NO DATA,NO DATA,NO DATA,NO DATA,NO DATA,17379370
-82.36051,30.8292200000001,1588,OKEFENOKEE NWR,19661313,1900/01/01 00:00:00+00,32B81302,,120,,30.82922,-82.36051,GA,Charlton,FWS,REGION 4,OKEFENOKEE NWR,Jones Island,D,NO DATA,NO DATA,NO DATA,NO DATA,NO DATA,NO DATA,NO DATA,NO DATA,NO DATA,NO DATA,NO DATA,19661313
-121.25011,44.7795300000001,1591,WARM SPRINGS BASE,17553183,2023/07/24 17:09:33+00,329426EA,352108,1563,,44.77953,-121.25011,OR,Jefferson,BIA,Northwest,Warm Springs Agency,,A,4.43 inches,4 mph,105 degrees ,78 deg. F,NO DATA,37 % ,13.4 volts,NO DATA,167 degrees,7 mph,560 w/m2,17553182
-82.59433,30.1841400000001,1594,SUWANNEE FORESTRY CENTER,19744006,2023/07/24 19:59:54+00,32B50DC0,081201,203,,30.18414,-82.59433,FL,Columbia,S&PF,FLORIDA,DIVISION OF FORESTRY,Florida FS,A,36.99 inches,4 mph,230 degrees ,90 deg. F,99 deg. F ,54 % ,13.1 volts,.6 (unk),228 degrees,10 mph,432 w/m2,19744006
-89.65111,45.8872200000001,1622,WOODRUFF,17448495,2023/07/24 17:10:04+00,5370037A,471002,1619,,45.88722,-89.65111,WI,Oneida,S&PF,WISCONSIN,DNR,WOODRUFF DG,A,14.52 inches,4 mph,318 degrees ,78 deg. F,86 deg. F ,53 % ,13.4 volts,12.4 (unk),345 degrees,12 mph,701 w/m2,17448494
-87.7605799999999,31.6906900000001,1628,GROVE HILL,18945547,2023/07/24 18:26:03+00,32B3C810,015201,445,,31.69069,-87.76058,AL,Clarke,S&PF,ALABAMA,,,A,37.47 inches,6 mph,350 degrees ,89 deg. F,101 deg. F ,47 % ,13.2 volts,9.1 (unk),355 degrees,10 mph,812 w/m2,18945545
-107.368,40.0784400000001,1646,DEAD HORSE,16930606,2023/07/24 19:57:24+00,323603A4,051404,8685,Located on a knob at the edge of an alpine meadow.  Aspentrees located to the south.  Located north of the WhiteRiver.Site has a drop off to the south with surroundingmeadow all other sides. Elk Calving grounds. quite please.,40.07844,-107.368,CO,Rio Blanco,USFS,02,WHITE RIVER NF,BLANCO RD,A,9.21 inches,4 mph,310 degrees ,76 deg. F,NO DATA,30 % ,13.4 volts,NO DATA,228 degrees,22 mph,507 w/m2,16930606
-116.18857,34.01779,1674,LOST HORSE,16900654,2023/07/24 04:00:54+00,FA6065D0,045614,4133,Site is located in Joshua Tree National Park at Lost Horse Ranger Station. Ground cover is Joshua Tree/blackbrush woodland. Lost Horse Valley is one mile southeast and Hidden Valley is 3/4 mile east. Site in fenced in area 600 feet southeast of ranger station and 50 feet north of road.,34.01779,-116.18857,CA,Riverside,NPS,PACIFIC WEST,JOSHUA TREE NM,,A,5.38 inches,6 mph,235 degrees ,84 deg. F,82 deg. F ,31 % ,13 volts,5.4 (unk),227 degrees,19 mph,0 w/m2,16900654
-88.32167,35.155,1693,SHILOH NMP,17397280,2023/07/24 17:07:34+00,0260E284,408302,420,,35.155,-88.32167,TN,Hardin,S&PF,TENNESSEE,DIVISION OF FORESTRY,Highland Rim,A,34.65 inches,1 mph,240 degrees ,91 deg. F,NO DATA,53 % ,13.1 volts,NO DATA,224 degrees,7 mph,784 w/m2,17397280
-122.14469,38.7383600000001,1695,BROOKS,17090867,2023/07/24 19:59:14+00,CA45503A,042202,354,Station located at the CDF Brooks Fire Station.14023 Hwy 16,38.73836,-122.14469,CA,Yolo,S&PF,CALIFORNIA,CDF,LAKE-NAPA-SONOMA UNI,A,29.19 inches,6 mph,134 degrees ,90 deg. F,106 deg. F ,31 % ,13.2 volts,5.5 (unk),151 degrees,13 mph,933 w/m2,17090865
-111.32077,38.1158600000001,1719,LARB HOLLOW,17413156,2023/07/24 20:04:04+00,333560EE,422610,8509,"Station is in opening in Ponderosa Pine/mixed shrub cover.It is mid-slope, facing SW just below a slight ridge on thenorth.",38.11586,-111.32077,UT,Garfield,USFS,04,FISHLAKE NF,,A,2.24 inches,8 mph,188 degrees ,86 deg. F,NO DATA,15 % ,13.2 volts,NO DATA,196 degrees,20 mph,882 w/m2,17413155
-120.68472,44.60389,1735,BOARD HOLLOW,17177374,2023/07/24 17:14:34+00,6000B1E0,352109,4188,,44.60389,-120.68472,OR,Jefferson,S&PF,OREGON,DEPT OF FORESTRY,CENTRAL OREGON DIST,A,5.55 inches,7 mph,261 degrees ,70 deg. F,84 deg. F ,43 % ,13.4 volts,6.8 (unk),256 degrees,12 mph,625 w/m2,17177373
-115.1735,32.97364,1752,CAHUILLA,17247515,2023/07/24 17:10:05+00,325C7654,045805,278,"SITE SITS AT CAHUILLA RS.  HWY 78 400YDS TO THE NORTH. SAND
DUNES AND MESQUITE ALL AROUND. ALL AMERICAN CANAL 1 MILE
TO THE WEST.  SAND HILLS 1 MILE EAST RUNNING NW-SE.",32.97364,-115.1735,CA,Imperial,BLM,R8 Lower CO Basin,CA DESERT DISTRICT,,A,.64 inches,4 mph,152 degrees ,105 deg. F,NO DATA,23 % ,13 volts,NO DATA,133 degrees,9 mph,NO DATA,17247515
-159.67904,22.0892400000001,1807,PUU LUA,17560594,2023/07/24 18:35:04+00,487083CE,495007,3274,"Near Puu Lua Reservoir, near heavily forested area.",22.08924,-159.67904,HI,Kauai,S&PF,HAWAII,DEPT OF LAND AND NR,DOFAWKA,A,50.88 inches,3 mph,91 degrees ,72 deg. F,70 deg. F ,72 % ,13.3 volts,19.8 (unk),56 degrees,7 mph,279 w/m2,17560594
-116.2113,43.5675200000001,1810,BOISE WFO,18581003,2023/07/24 17:10:51+00,32B163CE,,2992,,43.56752,-116.2113,ID,Ada,NWS,,,Boise NWS,A,25.78 inches,2 mph,41 degrees ,88 deg. F,51 deg. F ,21 % ,NO DATA,0 (unk),57 degrees,6 mph,126 w/m2,18581003
-67.02611,18.1616700000001,1811,MARICAO,17037364,2023/07/24 19:45:55+00,78A01308,,1618,,18.16167,-67.02611,PR,,S&PF,PUERTO RICO,,,A,NO DATA,NO DATA,NO DATA,NO DATA,NO DATA,NO DATA,NO DATA,NO DATA,NO DATA,NO DATA,NO DATA,17037364
-109.12211,42.9779500000001,1831,WIND RIVER,16783924,1900/01/01 00:00:00+00,52117480,481411,9235,"SITE SITS ON SW SIDE OF SLOPE LOCATED IN GRASSLANDWITH SOME SAGEBRUSH. ELK GRAZING AREA, FOREST 1/2MILE ON ALL SIDES.",42.97795,-109.12211,WY,Fremont,BIA,Rocky Mountain,Wind River Agency,,A,7.66 inches,2 mph,343 degrees ,44 deg. F,NO DATA,82 % ,12.9 volts,NO DATA,82 degrees,5 mph,0 w/m2,16783924
-123.30839,38.7380600000001,1835,OAK RIDGE,18976018,2023/07/24 18:33:14+00,32B525FE,042012,1890,,38.73806,-123.30839,CA,Sonoma,S&PF,CALIFORNIA,CDF,,A,56.03 inches,11 mph,333 degrees ,77 deg. F,85 deg. F ,31 % ,13.4 volts,6 (unk),348 degrees,19 mph,616 w/m2,18976016
-120.90332,40.30587,1858,WESTWOOD,17105195,2023/07/24 19:56:19+00,CA20A54C,040719,6155,,40.30587,-120.90332,CA,Lassen,S&PF,CALIFORNIA,CDF,LASSEN MODOC UNIT,A,16.83 inches,12 mph,204 degrees ,79 deg. F,97 deg. F ,12 % ,13.4 volts,3.8 (unk),214 degrees,19 mph,995 w/m2,17105193
-103.26248,29.59328,1872,BIG BEND QD #1,17516836,2023/07/24 19:50:30+00,3291325C,,2839,On Southeast-facing slope on the lower 3rd.,29.59328,-103.26248,TX,,NPS,INTERMOUNTAIN,BIG BEND NP,,A,2.01 inches,10 mph,104 degrees ,102 deg. F,115 deg. F ,15 % ,13.4 volts,2.3 (unk),40 degrees,20 mph,NO DATA,17516832
-120.84722,42.18917,1873,STRAWBERRY,16972336,2023/07/24 20:03:45+00,32479190,353423,5590,,42.18917,-120.84722,OR,Lake,USFS,06,Fremont-Winema NF,Lakeview R.D.,A,5.56 inches,9 mph,211 degrees ,80 deg. F,NO DATA,18 % ,13.5 volts,NO DATA,234 degrees,19 mph,1001 w/m2,16972335
-120.76587,36.7271400000001,1886,PANOCHE ROAD,17100846,2023/07/24 18:27:24+00,CA2265A6,044514,2055,North of large telecom site that can be seen from I-5 Fwy,36.72714,-120.76587,CA,Fresno,S&PF,CALIFORNIA,CDF,FRESNO-KINGS UNIT,A,11.81 inches,6 mph,28 degrees ,87 deg. F,100 deg. F ,19 % ,13.2 volts,3.3 (unk),55 degrees,11 mph,709 w/m2,17100844
-79.77194,39.6769400000001,1913,WVU RESEARCH FOREST,18171409,2023/07/24 17:12:03+00,32D6D046,460902,2280,"Large grassy area located near the HQ for the WVU Research Forest, flat, ridgetop.",39.67694,-79.77194,WV,Preston,S&PF,WEST VIRGINIA,,D1,A,27.04 inches,2 mph,125 degrees ,80 deg. F,NO DATA,53 % ,13.4 volts,NO DATA,99 degrees,8 mph,805 w/m2,18171409
-123.60278,42.0763400000001,1926,TAKELMA-RAWS,19686913,1900/01/01 00:00:00+00,32B622F0,,,,42.07634,-123.60278,OR,Josephine,S&PF,OREGON,,Pacific Power,D,NO DATA,NO DATA,NO DATA,NO DATA,NO DATA,NO DATA,NO DATA,NO DATA,NO DATA,NO DATA,NO DATA,19686913
-79.11861,41.90056,1930,KINZUA,17448224,2023/07/24 17:07:24+00,3289919C,361231,1408,,41.90056,-79.11861,PA,Warren,USFS,09,ALLEGHENY NF,,A,24.18 inches,5 mph,202 degrees ,79 deg. F,96 deg. F ,57 % ,13.3 volts,9.8 (unk),148 degrees,12 mph,743 w/m2,17448223
-102.16589,45.67319,1934,SHADEHILL,18473489,2023/07/24 17:08:14+00,AAB0148A,,2515,,45.67319,-102.16589,SD,Perkins,USFS,01,DAKOTA PRAIRIE GL,GRAND RIVER RD,A,10.35 inches,10 mph,111 degrees ,89 deg. F,100 deg. F ,49 % ,13.3 volts,9.8 (unk),108 degrees,18 mph,773 w/m2,18473488
-121.89962,40.6194800000001,1958,WHITMORE,17105456,2023/07/24 18:25:34+00,CA20C0AA,040615,2499,,40.61948,-121.89962,CA,Shasta,S&PF,CALIFORNIA,CDF,SHASTA-TRINITY UNIT,A,46.01 inches,1 mph,320 degrees ,84 deg. F,100 deg. F ,30 % ,13.4 volts,6.6 (unk),288 degrees,5 mph,505 w/m2,17105454
-79.2772199999999,38.81667,1964,UPPER TRACT,17468697,2023/07/24 17:17:53+00,9000958E,463501,1705,"Open pasture (grazing allotment) on a large flat, severalhundred feet open area.",38.81667,-79.27722,WV,Pendleton,S&PF,WEST VIRGINIA,NOT APPLICABLE,D2,A,17.17 inches,4 mph,72 degrees ,85 deg. F,NO DATA,41 % ,13.3 volts,NO DATA,164 degrees,9 mph,879 w/m2,17468697
-118.66712,34.42972,1968,DEL VALLE,17164091,2023/07/24 19:55:34+00,CA42249E,045445,1278,Open hilltop in FD training facility.,34.42972,-118.66712,CA,Los Angeles,S&PF,CALIFORNIA,LOS ANGELES COUNTY,,A,27.33 inches,8 mph,205 degrees ,100 deg. F,115 deg. F ,25 % ,13.2 volts,7.1 (unk),215 degrees,15 mph,936 w/m2,17164090
-120.94194,39.97333,1975,QUINCY RD,16962108,2023/07/24 17:15:54+00,32418228,040910,3652,"STATION IS LOCATED 1/10 MILES BEHIND HELIPAD AT THE
PLUMAS NF RANGER STATION, QUINCEY DIST, AND 20 YDS.
OFF ROAD ON THE RIGHT. STATION IS VISIBLE FROM ROAD.
SURROUNDING AREA MOUNTAINS AND VALLEYS, WITH CONIFERS
AND BRUSH.",39.97333,-120.94194,CA,Plumas,USFS,05,PLUMAS NF,MT. HOUGH DISTRICT,A,40.5 inches,0 mph,118 degrees ,71 deg. F,70 deg. F ,41 % ,13.5 volts,5.7 (unk),98 degrees,3 mph,NO DATA,16962106
-122.80556,43.7252800000001,1987,GREEN MOUNTAIN,17177628,2023/07/24 17:13:05+00,60002482,352562,3064,"Young forest regrowth, 8 years",43.72528,-122.80556,OR,Lane,S&PF,OREGON,DEPT OF FORESTRY,,A,39.27 inches,0 mph,36 degrees ,69 deg. F,76 deg. F ,40 % ,13.6 volts,10.1 (unk),0 degrees,0 mph,379 w/m2,17177628
-121.60933,37.6930300000001,2000,ALTAMONT,17563421,2023/07/24 17:12:41+00,CA400786,043407,1436,In the Altamont Hills wind farms. Land is grazed by cattle,37.69303,-121.60933,CA,Alameda,S&PF,CALIFORNIA,CDF,SCU,A,19.16 inches,26 mph,238 degrees ,69 deg. F,72 deg. F ,51 % ,13.4 volts,4.6 (unk),250 degrees,35 mph,602 w/m2,17563419
-89.58692,35.58917,2010,COVINGTON,19302928,2023/07/24 17:19:44+00,32B79384,405801,280,,35.58917,-89.58692,TN,Tipton,S&PF,TENNESSEE,DIVISION OF FORESTRY,WEST,A,29.39 inches,4 mph,187 degrees ,91 deg. F,NO DATA,58 % ,13.1 volts,NO DATA,213 degrees,8 mph,804 w/m2,19302928
-123.60158,39.3526200000001,2026,MCGUIRES,17099832,2023/07/24 19:50:03+00,CA2BB592,041017,627,"Site Located 15 miles East of Ft. Bragg off Hwy 20
Contact Tony Richardson (707)895-3323 for access.",39.35262,-123.60158,CA,Mendocino,S&PF,CALIFORNIA,CDF,MENDOCINO UNIT,A,51.21 inches,2 mph,297 degrees ,75 deg. F,84 deg. F ,41 % ,13.8 volts,11.9 (unk),325 degrees,8 mph,892 w/m2,17099830
-120.94667,47.1522200000001,2032,PEOH POINT,16879661,2023/07/24 17:11:55+00,3000804A,452206,4020,,47.15222,-120.94667,WA,Kittitas,S&PF,WASHINGTON,DEPT. OF NATURAL RES,SOUTHEAST,A,11.84 inches,2 mph,264 degrees ,64 deg. F,NO DATA,49 % ,13.4 volts,NO DATA,261 degrees,16 mph,677 w/m2,16879660
-123.34846,38.9873600000001,2037,BOONVILLE,17090612,2023/07/24 19:50:44+00,CA4576D6,041001,644,"The site is located a few miles south of Boonville on hwy
128 behind the boonville CDF fire station. It sits on a
knoll on a west facing slope.",38.98736,-123.34846,CA,Mendocino,S&PF,CALIFORNIA,CDF,MENDOCINO UNIT,A,52.14 inches,11 mph,315 degrees ,80 deg. F,94 deg. F ,33 % ,13.9 volts,9.3 (unk),333 degrees,18 mph,998 w/m2,17090609
-91.4999999999999,46.0004700000001,2040,HAYWARD,17449507,2023/07/24 20:03:34+00,53709618,470804,1079,,46.00047,-91.5,WI,Sawyer,S&PF,WISCONSIN,DNR,PARK FALLS,A,14.01 inches,3 mph,272 degrees ,85 deg. F,94 deg. F ,43 % ,13.3 volts,9.6 (unk),252 degrees,9 mph,614 w/m2,17449507
-111.46924,37.88975,2070,WILLOW GULCH,19052046,2023/07/24 18:37:04+00,32B6B792,,6717,,37.88975,-111.46924,UT,Garfield,BLM,R7 Upper CO Basin,KANAB,Kanab Headquarters,A,43.94 inches,4 mph,199 degrees ,90 deg. F,NO DATA,15 % ,12 volts,NO DATA,NO DATA,80 mph,80 w/m2,19052046
-84.40178,30.4581900000001,2095,TALLAHASSEE FORESTRY CNTR,19743751,2023/07/24 19:59:44+00,32B4FFBE,080803,167,,30.45819,-84.40178,FL,Leon,S&PF,FLORIDA,DIVISION OF FORESTRY,Florida FS,A,33.55 inches,2 mph,177 degrees ,90 deg. F,96 deg. F ,62 % ,13.2 volts,7.7 (unk),172 degrees,8 mph,567 w/m2,19743751
-117.10583,33.3611100000001,2096,PALA,17568529,2023/07/24 19:50:24+00,CA80250E,,455,,33.36111,-117.10583,CA,San Diego,S&PF,CALIFORNIA,,San Diego Gas & Elec,A,25.03 inches,10 mph,248 degrees ,93 deg. F,111 deg. F ,41 % ,13.2 volts,8.5 (unk),235 degrees,18 mph,887 w/m2,17568528
-109.60675,31.45833,2115,NRAWS 8 DOUGLAS AIRPORT,17905210,2023/07/24 18:24:21+00,327C5156,QPEA3,4032,,31.45833,-109.60675,AZ,Cochise,NWS,,,Tucson WFO,A,15.03 inches,4 mph,129 degrees ,98 deg. F,109 deg. F ,25 % ,13.7 volts,3.5 (unk),105 degrees,21 mph,1024 w/m2,17905210
-122.6099,39.8542100000001,2122,THOMES CREEK,17104174,2023/07/24 18:28:34+00,CA211438,040816,1029,This site is on top of a knoll with a clear 360 degree view.The site is on a cattle ranch with oak trees and grass land.It is located in the foot hills on the west side of the,39.85421,-122.6099,CA,Tehama,S&PF,CALIFORNIA,CDF,TEHAMA-GLENN UNIT,A,29.86 inches,4 mph,57 degrees ,88 deg. F,102 deg. F ,30 % ,13.2 volts,4.6 (unk),81 degrees,10 mph,787 w/m2,17104172
-120.49861,36.1833300000001,2126,ALCALDE,19118611,2023/07/24 17:20:44+00,32A16450,044523,2728,ALCALDE Ranch.  Coalinga hills shrub and grass.  Sits at the top of a ridge.  Highly exposed location.,36.18333,-120.49861,CA,Fresno,S&PF,CALIFORNIA,CDF,Fresno-Kings Unit,A,19.39 inches,4 mph,167 degrees ,89 deg. F,99 deg. F ,14 % ,13.3 volts,3.4 (unk),182 degrees,9 mph,507 w/m2,19118609
-119.26169,37.13683,2130,SHAVER,17103409,2023/07/24 19:56:09+00,CA256792,044522,5632,Station located on modified open area surrounded by mixedconifer with limited hardwood component.,37.13683,-119.26169,CA,Fresno,S&PF,CALIFORNIA,CDF,FRESNO-KINGS UNIT,A,61.47 inches,3 mph,169 degrees ,82 deg. F,94 deg. F ,36 % ,13.3 volts,7.8 (unk),176 degrees,10 mph,667 w/m2,17103407
-147.01681,64.6967900000001,2148,MANCHU,17480725,2023/07/24 18:25:04+00,D0D0264E,500753,674,,64.69679,-147.01681,AK,Fairbanks North Star,DOD,USA,FORT WAINWRITE,,A,2.47 inches,3 mph,215 degrees ,79 deg. F,NO DATA,56 % ,13.3 volts,NO DATA,233 degrees,6 mph,410 w/m2,17480724
-86.86564,30.8583100000001,2155,BLACKWATER FORESTRY CNTR,19743496,2023/07/24 19:59:33+00,32B4D780,080203,206,,30.85831,-86.86564,FL,Santa Rosa,S&PF,FLORIDA,DIVISION OF FORESTRY,Florida FS,A,39.44 inches,4 mph,217 degrees ,93 deg. F,106 deg. F ,40 % ,13.2 volts,6 (unk),280 degrees,7 mph,838 w/m2,19743496
-89.5163899999999,31.74972,2157,COVINGTON,17401630,2023/07/24 17:09:54+00,391053DC,226502,290,,31.74972,-89.51639,MS,Covington,S&PF,MISSISSIPPI,FORESTRY COMMISSION,Fire Services,A,48.93 inches,4 mph,170 degrees ,87 deg. F,NO DATA,49 % ,12.4 volts,NO DATA,99 degrees,11 mph,687 w/m2,17401629
-83.38139,33.4091700000001,2162,ROCK EAGLE PORTABLE 1,19011079,1900/01/01 00:00:00+00,32B598A2,,599,open helibase,33.40917,-83.38139,GA,Putnam,USFS,08,CHATTAHOOCHEE&OCONEE,Oconee RD,D,NO DATA,NO DATA,NO DATA,NO DATA,NO DATA,NO DATA,NO DATA,NO DATA,NO DATA,NO DATA,NO DATA,19011079
-116.09447,32.6747500000001,2184,MOUNTAIN SPRINGS GRADE,17569047,2023/07/24 19:50:44+00,CA8040E8,,2044,,32.67475,-116.09447,CA,San Diego,S&PF,CALIFORNIA,,San Diego Gas & Elec,A,7.66 inches,6 mph,98 degrees ,100 deg. F,116 deg. F ,26 % ,13 volts,4.8 (unk),79 degrees,15 mph,883 w/m2,17569046
-120.67254,41.5283900000001,2241,DEVILS GARDEN,17092400,2023/07/24 19:55:15+00,CA207324,040309,5049,,41.52839,-120.67254,CA,Modoc,S&PF,CALIFORNIA,CDF,LASSEN-MODOC UNIT,A,12.25 inches,9 mph,248 degrees ,84 deg. F,97 deg. F ,9 % ,13.3 volts,4.1 (unk),263 degrees,25 mph,969 w/m2,17092398
-90.6899999999999,45.10556,2264,DIAMOND LAKE,17452833,1900/01/01 00:00:00+00,5370D512,471703,1317,,45.10556,-90.69,WI,Taylor,S&PF,WISCONSIN,DNR,Woodruff DG,A,10.32 inches,2 mph,98 degrees ,48 deg. F,40 deg. F ,66 % ,12.8 volts,9 (unk),83 degrees,6 mph,0 w/m2,17452833
-149.54153,63.3003200000001,2278,DUNKLE HILLS,17443107,2023/07/24 18:34:23+00,3960B582,,2651,,63.30032,-149.54153,AK,,NPS,ALASKA,DENALI NP,,A,7.66 inches,3.3 mph,157.89999 degrees ,56.6 deg. F,NO DATA,82.1 % ,13.4 volts,NO DATA,166.10001 degrees,5.3 mph,159.7 w/m2,17443105
-116.10806,55.39583,2314,3 MILE,17192230,2023/07/24 17:12:33+00,326F772A,102004,7500,"south facing slope,knob 100 feet in diameter mid slope",55.39583,-116.10806,ID,Clark,USFS,04,CARIBOU/TARGHEE NF,DUBOIS RD,1,11.96 inches,5 mph,176 degrees ,79 deg. F,83 deg. F ,31 % ,13.4 volts,8.1 (unk),174 degrees,9 mph,539 w/m2,17192230
-86.14806,37.13167,2334,HOUCHIN MEADOW,17474596,2023/07/24 17:12:33+00,FA65D19E,156502,774,,37.13167,-86.14806,KY,,NPS,SOUTHEAST,MAMMOTH CAVE NP,,A,13.58 inches,3 mph,210 degrees ,87 deg. F,102 deg. F ,64 % ,13.2 volts,9.6 (unk),165 degrees,6 mph,601 w/m2,17474595
-114.88411,32.7397800000001,2358,BUTTERCUP,17247265,2023/07/24 17:09:54+00,325C355E,045804,217,"BUTTERCUP RECREATION PARK- SAND DUNES ALL AROUND I-8 200'
TO THE NORTH.",32.73978,-114.88411,CA,Imperial,BLM,R8 Lower CO Basin,CA DESERT DISTRICT,,A,0 inches,2 mph,141 degrees ,104 deg. F,NO DATA,24 % ,13.3 volts,NO DATA,145 degrees,7 mph,702 w/m2,17247265
-148.89894,63.7354300000001,2385,DENALI VISITOR CENTER,17071922,2023/07/24 18:27:34+00,FA61B142,500626,1650,,63.73543,-148.89894,AK,Denali,NPS,ALASKA,DENALI NP,,A,1.97 inches,3 mph,139 degrees ,72 deg. F,NO DATA,55 % ,13.7 volts,NO DATA,189 degrees,8 mph,406 w/m2,17071921
-158.19861,21.57194,2388,DILLINGHAM,17429268,2023/07/24 19:49:33+00,3278D278,,102,"SITE IS LOCATED ON OLD DILLINGHAM AIRFIELD ON WEST SIDE
OF OAHU. STATION IS EAST OF WAIANAE MOUNTAINS AND 4 MILES
WEST OF WAIALUA TOWN. STATION IS SURROUNDED BY SHRUBS AND
BRUSH THAT HAS GROWN OVER AIRFIELD. MOKULEIA BEACH 1.5 MILES
NORTH OF STATION.",21.57194,-158.19861,HI,Honolulu,DOD,USA,SCHOFIELD BARRACKS,,A,20.96 inches,6 mph,38 degrees ,87 deg. F,90 deg. F ,59 % ,13 volts,NO DATA,51 degrees,15 mph,NO DATA,17429268
-147.69528,64.3858300000001,2401,BLAIR LAKES,17562644,2023/07/24 18:29:33+00,32488474,500758,790,,64.38583,-147.69528,AK,Fairbanks North Star,DOD,USAF,EIELSON AFB,,A,3.72 inches,5 mph,284 degrees ,77 deg. F,NO DATA,63 % ,13.4 volts,NO DATA,272 degrees,8 mph,393 w/m2,17562643
-118.46679,48.1807400000001,2404,GOLD MOUNTAIN,16783169,2023/07/24 17:11:23+00,52118404,452510,4686,"RAWS IS LOCATED AT THE GOLD MTN LOOKOUT TOWER.  THERE IS
HEAVY TIMBER IN ALL DIRECTIONS APPROXIMATELY 200 YDS AWAY
FROM RAWS.  THE IMMEDIATE AREA SURROUNDING THE RAWS IS
MOSTLY GRASSES AND BRUSH.",48.18074,-118.46679,WA,Ferry,BIA,Northwest,Colville Agency,,A,16.87 inches,6 mph,215 degrees ,73 deg. F,NO DATA,38 % ,13.5 volts,NO DATA,192 degrees,19 mph,656 w/m2,16783167
-80.68028,25.3905600000001,2408,DBC1,17541643,1900/01/01 00:00:00+00,32751400,,200,,25.39056,-80.68028,FL,Monroe,NPS,SOUTHEAST,EVERGLADES NP,,D,NO DATA,NO DATA,NO DATA,NO DATA,NO DATA,NO DATA,NO DATA,NO DATA,NO DATA,NO DATA,NO DATA,17541643
-142.05808,62.5878500000001,2412,JATAHMUND LAKE,16894506,2023/07/24 17:18:44+00,1260201E,500936,2408,,62.58785,-142.05808,AK,Valdez-Cordova,FWS,REGION 7,ALASKA FIRE SERVICE,,1,4.38 inches,5 mph,280 degrees ,68 deg. F,NO DATA,56 % ,13.5 volts,NO DATA,279 degrees,9 mph,276 w/m2,16894506
-83.71261,34.8057400000001,2434,BRASSTOWN,17240620,2023/07/24 17:06:05+00,327357C4,090701,3280,,34.80574,-83.71261,GA,Towns,USFS,08,CHATTAHOOCHEE&OCONEE,BLUE RIDGE,A,42.34 inches,3 mph,312 degrees ,81 deg. F,103 deg. F ,47 % ,13.3 volts,9.1 (unk),284 degrees,6 mph,712 w/m2,17240620
-149.36688,60.4103200000001,2439,KENAI LAKE,17002536,2023/07/24 19:56:33+00,3246A6F0,500908,470,"FIRE WX ZONE: 31
VALLEY BOTTOM
LOCATED AT LAWING AIRSTRIP. DIFFICULTY HITTING SATELLITE.",60.41032,-149.36688,AK,Kenai Peninsula,USFS,10,CHUGACH NF,SEWARD RD,A,6.22 inches,3 mph,165 degrees ,66 deg. F,78 deg. F ,69 % ,13.5 volts,14.2 (unk),152 degrees,8 mph,562 w/m2,17002535
-121.76898,39.8718400000001,2456,COHASSET,17091890,2023/07/24 19:51:14+00,CA214444,041211,1733,,39.87184,-121.76898,CA,Butte,S&PF,CALIFORNIA,CDF,BUTTE UNIT,A,41.57 inches,10 mph,164 degrees ,87 deg. F,97 deg. F ,28 % ,13.2 volts,5.4 (unk),158 degrees,18 mph,940 w/m2,17091888
-122.2648,38.4748500000001,2471,ATLAS PEAK,17869588,2023/07/24 18:29:54+00,3200051A,042108,1934,,38.47485,-122.2648,CA,Napa,S&PF,CALIFORNIA,CDF,NAPA COUNTY FIRE DEP,A,37.22 inches,17 mph,247 degrees ,72 deg. F,81 deg. F ,46 % ,13.4 volts,8.1 (unk),249 degrees,21 mph,860 w/m2,17869587
-149.90845,61.5182500000001,2511,BIG LAKE,17228065,2023/07/24 19:51:24+00,3390C180,500939,175,,61.51825,-149.90845,AK,Matanuska-Susitna,S&PF,ALASKA,,,A,6.69 inches,2 mph,199 degrees ,72 deg. F,NO DATA,60 % ,13.5 volts,NO DATA,203 degrees,6 mph,543 w/m2,17228063
-107.91472,37.35222,2550,LOG CHUTE,17523229,2023/07/24 19:58:14+00,328A538C,055808,8254,FIRE WX ZONE: 295MID SLOPE SITE,37.35222,-107.91472,CO,La Plata,USFS,02,SAN JUAN NF,Columbine RD,A,13.36 inches,7 mph,243 degrees ,90 deg. F,NO DATA,17 % ,13.1 volts,NO DATA,194 degrees,15 mph,1026 w/m2,17523228
-80.7394399999999,34.0396400000001,2563,MCCRADY TRAINING CENTER,18478603,2023/07/24 18:33:03+00,AAAB2526,,245,,34.03964,-80.73944,SC,Richland,DOD,,,SOUTH CAROLINA NG,A,35.79 inches,2 mph,204 degrees ,90 deg. F,101 deg. F ,52 % ,13.1 volts,9.2 (unk),8 degrees,6 mph,666 w/m2,18478602
-118.92972,44.9711100000001,2577,CASE,16993846,2023/07/24 17:13:03+00,3245F182,352329,3800,STATION SITE A HALF MILE NORTH/EAST OF A NW/SE MEADOW WITH ACREEK RUNNING THROUGH IT. HIGHTWAY 395 IS ABOUT 2 MILES TOTHE WEST. RIDGE LINE IS RUNNING NW/SE ABOUT TWO MILE TO THENORTHEAST.,44.97111,-118.92972,OR,Grant,USFS,06,UMATILLA NF,,A,6.45 inches,3 mph,324 degrees ,73 deg. F,75 deg. F ,40 % ,13.4 volts,6.9 (unk),348 degrees,8 mph,627 w/m2,16993845
-81.59167,33.33306,2583,SAVRIV,17051706,2023/07/24 17:07:04+00,32865210,383101,275,"Weather station is in a open clearing with no slope
Station is Solar/battery powered.",33.33306,-81.59167,SC,Aiken,USFS,08,SAVANNAH RIVER FS,AFM,A,36.09 inches,2 mph,224 degrees ,82 deg. F,94 deg. F ,75 % ,13.8 volts,11.9 (unk),199 degrees,7 mph,345 w/m2,17051703
-111.92925,41.1766400000001,2598,BEUS CANYON,16949295,2023/07/24 20:01:14+00,324131A6,420403,5068,MIDSLOPE SITE,41.17664,-111.92925,UT,,USFS,04,WASATCH NF,OGDEN RD,1,4.08 inches,5 mph,146 degrees ,82 deg. F,80.9 deg. F ,34 % ,13.3 volts,6.5 (unk),122 degrees,14 mph,208 w/m2,16949295
-121.9875,45.94361,2600,DRY CRK,17205805,2023/07/24 18:25:44+00,3286C772,451924,2700,,45.94361,-121.9875,WA,Skamania,USFS,06,GIFFORD PINCHOT NF,Mt.Adams RD,A,12.37 inches,2 mph,277 degrees ,64 deg. F,68 deg. F ,43 % ,NO DATA,9.8 (unk),279 degrees,7 mph,364 w/m2,17205804
-120.24158,38.73582,2608,OWENS CAMP,16952373,2023/07/24 20:02:04+00,32399054,042611,5240,"MIDSLOPE. Owens Camp Station heliport.Site burned over by the King Fire, September 2014.",38.73582,-120.24158,CA,El Dorado,USFS,05,ELDORADO NF,CAMINO DISPATCH,A,48.65 inches,8 mph,181 degrees ,84 deg. F,100 deg. F ,18 % ,13.2 volts,5 (unk),190 degrees,22 mph,NO DATA,16952370
-115.99505,33.97599,2609,WILSON CANYON,18330892,2023/07/24 18:34:50+00,32D7314E,,3375,,33.97599,-115.99505,CA,Riverside,NPS,PACIFIC WEST,JOSHUA TREE NM,,A,8.84 inches,5 mph,114 degrees ,94 deg. F,NO DATA,19 % ,12.8 volts,NO DATA,120 degrees,13 mph,798 w/m2,18330891
-122.70631,38.91189,2610,KONOCTI,17095726,2023/07/24 19:57:24+00,CA2BE5EE,041411,2163,this site is located on top of a knoll just south of mtkonocti. the site has a lot volcanic rock and some grassand shrubs.,38.91189,-122.70631,CA,Lake,S&PF,CALIFORNIA,CDF,LAKE-NAPA-SONOMA UNI,A,41.6 inches,14 mph,301 degrees ,85 deg. F,96 deg. F ,21 % ,13.3 volts,4.5 (unk),297 degrees,20 mph,985 w/m2,17095724
-122.16973,39.9389400000001,2617,CORNING,17097009,2023/07/24 19:55:09+00,CA21074E,040814,289,Located at SE corner of Corning Airport by hangers.,39.93894,-122.16973,CA,Tehama,S&PF,CALIFORNIA,CDF,TEHAMA-GLENN UNIT,A,28.62 inches,7 mph,154 degrees ,85 deg. F,105 deg. F ,42 % ,13.2 volts,6.8 (unk),159 degrees,13 mph,831 w/m2,17097007
-120.07878,33.97869,2621,SANTA ROSA ISLAND,16906532,2023/07/24 17:13:24+00,FA45E5EA,045217,1284,Above Bechers Bay on top of Black Mountain,33.97869,-120.07878,CA,Santa Barbara,NPS,PACIFIC WEST,CHANNEL ISLAND NP,,A,21.51 inches,3 mph,21 degrees ,74 deg. F,84 deg. F ,63 % ,13.7 volts,11.6 (unk),181 degrees,8 mph,591 w/m2,16906532
-116.42221,35.68051,2646,SARATOGA SPRING,18330127,2023/07/24 18:34:21+00,AAB0C2E2,,198,,35.68051,-116.42221,CA,San Bernardino,NPS,PACIFIC WEST,DEATH VALLEY NP,,A,2.3 inches,3 mph,38 degrees ,110 deg. F,NO DATA,11 % ,13 volts,NO DATA,109 degrees,10 mph,768 w/m2,18330126
-119.71626,33.99298,2654,SANTA CRUZ ISLAND,16906789,2023/07/24 17:13:34+00,FA45F69C,045216,292,Located on Santa Cruz Island in the Central Valley.Station is on the lower 1/3 of the north slope.,33.99298,-119.71626,CA,Santa Barbara,NPS,PACIFIC WEST,CHANNEL ISLAND NP,,A,30.25 inches,2 mph,21 degrees ,80 deg. F,94 deg. F ,58 % ,13.3 volts,10.6 (unk),360 degrees,7 mph,650 w/m2,16906789
-71.7013899999999,44.7672200000001,2661,NULHEGAN,17371685,2023/07/24 18:25:35+00,83782268,430402,1245,"Located at new office site, RT105.  Open grass setting.",44.76722,-71.70139,VT,Essex,S&PF,VERMONT,,,A,24.3 inches,3 mph,174 degrees ,86 deg. F,NO DATA,41 % ,13.2 volts,NO DATA,282 degrees,9 mph,818 w/m2,17371684
-122.0433,45.6043000000001,2662,NRAWS 3 (DODSON),17880123,2023/07/24 13:22:15+00,3269B2FA,,51,,45.6043,-122.0433,OR,Hood River,NWS,,,Boise WFO,A,NO DATA,NO DATA,NO DATA,NO DATA,NO DATA,NO DATA,NO DATA,NO DATA,NO DATA,NO DATA,NO DATA,17880123
-117.36275,48.42328,2668,FAIRCHILD 36 RQF,17746459,2023/07/24 19:55:12+00,AA1094C8,FRCW1,2450,Station is located at Fairchild 36 RQF Rescue school in a fenced compound surrounded by buildings. compound is surrounded by forest at the eastern edge of Colvile N.F.,48.42328,-117.36275,WA,Pend Oreille,DOD,USAF,FAIRCHILD,,A,97.6 inches,2 mph,15 degrees ,87.9 deg. F,NO DATA,24 % ,13.6 volts,NO DATA,95 degrees,31.3 mph,884 w/m2,17746459
-120.48587,34.75865,2677,VANDENBERG,17304107,2023/07/24 17:22:14+00,3285A59A,045220,1017,50' South of a ridge top fuel break.  The area was burnedduring a wildfire in September of 2000.  Prodomently grassadjacent to pockets of chaparral.,34.75865,-120.48587,CA,Santa Barbara,USFS,05,LOS PADRES NF,VANDENBERG AFB,A,18.9 inches,5 mph,235 degrees ,75 deg. F,NO DATA,63 % ,13.4 volts,NO DATA,238 degrees,9 mph,513 w/m2,17304106
-122.64472,37.9905600000001,2680,WOODACRE,17384737,2023/07/24 19:51:24+00,CA28E2E0,042309,1400,,37.99056,-122.64472,CA,Marin,S&PF,CALIFORNIA,MARIN COUNTY,,A,0 inches,0 mph,301 degrees ,82 deg. F,111 deg. F ,35 % ,13.3 volts,5.9 (unk),298 degrees,0 mph,963 w/m2,17384736
-155.1075,19.2927800000001,2681,KEALAKOMO #2,17540393,2023/07/24 17:44:44+00,32807432,496024,97,"station located south end of Volcano National Park in grassland/lava flow approx 1/4 mile from coastline. Worked with Russ Gripp to update conflicting/inconsistant WIMS ID system in HI to accomadate additional stations, replaced old ID 328074 with new ID 496024",19.29278,-155.1075,HI,Hawaii,NPS,PACIFIC WEST,HAWAII VOLCANOES NP,,A,50.7 inches,19 mph,42 degrees ,80 deg. F,NO DATA,62 % ,13.6 volts,NO DATA,32 degrees,27 mph,177 w/m2,17540389
-83.8106099999999,34.87426,2687,BRASSTOWN BALD,19410440,1900/01/01 00:00:00+00,32B06FE6,,4800,,34.87426,-83.81061,GA,Union,USFS,08,CHATTAHOOCHEE&OCONEE,,D,NO DATA,NO DATA,NO DATA,NO DATA,NO DATA,NO DATA,NO DATA,NO DATA,NO DATA,NO DATA,NO DATA,19410439
-163.82,65.2752,2689,ELLA CREEK,18270227,1900/01/01 00:00:00+00,396182E2,,2300,,65.2752,-163.82,AK,,NPS,ALASKA,BERING LAND NP,,A,NO DATA,NO DATA,NO DATA,NO DATA,NO DATA,NO DATA,NO DATA,NO DATA,NO DATA,NO DATA,NO DATA,18270225
-85.27071,46.1532100000001,2709,REXTON,17280810,2023/07/24 18:30:54+00,0800A33A,201401,862,,46.15321,-85.27071,MI,Mackinac,S&PF,MICHIGAN,DEPT OF NATURAL RES.,UPPER PENINSULA,A,9.35 inches,3 mph,268 degrees ,79 deg. F,NO DATA,53 % ,13.3 volts,NO DATA,265 degrees,9 mph,754 w/m2,17280809
-149.28962,60.7269000000001,2730,GRANITE,17002793,2023/07/24 19:55:54+00,324704F2,500964,669,"FIRE WX ZONE 31
VALLEY BOTTOM
TROUBLE HITTING GOES",60.7269,-149.28962,AK,Kenai Peninsula,USFS,10,CHUGACH NF,SEWARD RD,A,5.49 inches,1 mph,85 degrees ,70 deg. F,77 deg. F ,67 % ,13.6 volts,16.5 (unk),0 degrees,5 mph,422 w/m2,17002792
-84.07444,34.765,2761,TOCCOA,17240359,2023/07/24 17:05:54+00,327344B2,090601,2415,,34.765,-84.07444,GA,Union,USFS,08,CHATTAHOOCHEE&OCONEE,BLUE RIDGE,A,38.64 inches,5 mph,357 degrees ,81 deg. F,97 deg. F ,45 % ,13.3 volts,10.5 (unk),315 degrees,11 mph,875 w/m2,17240359
-95.76611,32.2211100000001,2786,ATHENS,17320482,2023/07/24 17:08:34+00,88401400,412101,470,,32.22111,-95.76611,TX,Henderson,S&PF,TEXAS,TEXAS FOREST SERVICE,East,A,24.02 inches,4 mph,221 degrees ,95 deg. F,113 deg. F ,39 % ,13.2 volts,7.3 (unk),170 degrees,10 mph,831 w/m2,17320482
-118.59519,35.45363,2791,BRECKENRIDGE,17299746,2023/07/24 19:51:34+00,3284E46A,045009,7485,STATION IS LOCATED ON BRECKENRIDGE MOUNTAIN NEAR THE LOOKOUTTOWER. SITE IS SURROUNDED BY MATURE TIMBER AND SPARSEVEGETATION UNDERSTORY.  GOOD VIEW TO THE EAST AND SOUTH.VIEWS TO THE WEST BLOCKED BY NEARBY MOUNTAIN TOP. RAIN RESETON 7/1.,35.45363,-118.59519,CA,Kern,USFS,05,SEQUOIA NF,KERN RIVER RD,A,18.63 inches,3 mph,222 degrees ,83 deg. F,104 deg. F ,24 % ,13.2 volts,3.7 (unk),205 degrees,7 mph,NO DATA,17299746
-121.58433,40.9267800000001,2814,SOLDIER MTN,17103664,2023/07/24 17:13:54+00,CA20B63A,040630,3704,,40.92678,-121.58433,CA,Shasta,S&PF,CALIFORNIA,CDF,SHASTA-TRINITY UNIT,A,21.5 inches,4 mph,292 degrees ,79 deg. F,91 deg. F ,31 % ,13.3 volts,6 (unk),330 degrees,10 mph,692 w/m2,17103661
-122.58722,37.92778,2844,MIDDLE PEAK,17427998,2023/07/24 18:36:03+00,CA28D77A,042312,2339,,37.92778,-122.58722,CA,Marin,S&PF,CALIFORNIA,MARIN COUNTY,MUNICIPAL WATER DIST,A,0 inches,13 mph,323 degrees ,74 deg. F,92 deg. F ,33 % ,13.3 volts,5.4 (unk),336 degrees,22 mph,867 w/m2,17427997
-90.9363299999999,47.0030400000001,2846,SAND ISLAND,18596358,2023/07/24 17:21:31+00,3275B4F8,,615,,47.00304,-90.93633,WI,Bayfield,NPS,MIDWEST,APOSTLE ISLANDS,,A,99.99 inches,0 mph,0 degrees ,67 deg. F,-99 deg. F ,78 % ,13.3 volts,30.1 (unk),0 degrees,0 mph,NO DATA,18596358
-77.88031,39.35628,2857,KEARNEYSVILLE,17519897,2023/07/24 17:13:54+00,9000F068,462901,602,"Open field, grass kept mowed.  Fruit orchards within 150 meters, no obstacles within 75 meters.",39.35628,-77.88031,WV,Jefferson,S&PF,WEST VIRGINIA,NOT APPLICABLE,R2,A,14.21 inches,6 mph,167 degrees ,82 deg. F,NO DATA,57 % ,13.5 volts,NO DATA,154 degrees,13 mph,573 w/m2,17519897
-117.10556,32.8591700000001,2862,CAMP ELLIOTT,17475854,2023/07/24 18:24:04+00,85803260,,539,,32.85917,-117.10556,CA,San Diego,DOD,USMC,CAMP ELLIOT,MCAS Miramar,A,20.55 inches,5 mph,316 degrees ,82 deg. F,99 deg. F ,59 % ,13.3 volts,10.8 (unk),321 degrees,9 mph,798 w/m2,17475853
-119.79129,34.5444000000001,2865,LOS PRIETOS,16991030,2023/07/24 18:35:54+00,3267907E,045203,982,Site is an open field mostly covered with annual grassesmixed with a oak woodland.  Powerlines within 75 feet.,34.5444,-119.79129,CA,Santa Barbara,USFS,05,LOS PADRES NF,SANTA BARBARA RD,A,0 inches,4 mph,239 degrees ,87 deg. F,98 deg. F ,41 % ,13.6 volts,7.2 (unk),265 degrees,12 mph,570 w/m2,16991029
-89.85783,30.109,2869,SELA PORTABLE,17787694,2023/07/24 18:34:53+00,AA1166B6,,3,"4/8/2019: SELA portable relocated to Bayou Sauvage NWR, at the Irish Bayou hurricane levee by Pumps 3&4, east of Hwy 11.",30.109,-89.85783,LA,Orleans,FWS,REGION 4,BIG BRANCH NWR,Bayou Sauvage NWR,A,12.32 inches,5 mph,99 degrees ,89 deg. F,107 deg. F ,53 % ,13 volts,9 (unk),94 degrees,9 mph,973 w/m2,17787689
-82.64122,37.7488300000001,2870,BIG SANDY,17126690,2023/07/24 19:56:14+00,40302328,154801,1180,,37.74883,-82.64122,KY,,S&PF,KENTUCKY,DIVISION OF FORESTRY,,A,26.95 inches,5 mph,220 degrees ,85 deg. F,93 deg. F ,50 % ,13.2 volts,8.4 (unk),208 degrees,10 mph,576 w/m2,17126689
-113.69222,47.6258300000001,2880,PONY CREEK,17802787,2023/07/24 18:38:55+00,AA118544,241512,5510,,47.62583,-113.69222,MT,Missoula,USFS,01,FLATHEAD NF,Swan Lake RD,A,8.33 inches,4 mph,227 degrees ,85 deg. F,102 deg. F ,32 % ,13.3 volts,7.4 (unk),258 degrees,8 mph,745 w/m2,17802786
-121.71373,40.34414,2890,LASSEN LODGE,17098543,2023/07/24 19:50:33+00,CA20F530,040815,4159,,40.34414,-121.71373,CA,Tehama,S&PF,CALIFORNIA,CDF,TEHAMA-GLENN UNIT,A,41.24 inches,3 mph,213 degrees ,89 deg. F,105 deg. F ,24 % ,13.3 volts,4.7 (unk),259 degrees,9 mph,975 w/m2,17098541
-121.48898,39.73591,2918,JARBO GAP,17375789,2023/07/24 17:13:41+00,CA2B4516,041214,2535,Station is sited on a ridge above the Feather River canyon.Location is onthe edge of a large fire from 2002.,39.73591,-121.48898,CA,Butte,S&PF,CALIFORNIA,CDF,BUTTE UNIT,A,62.64 inches,3 mph,116 degrees ,84 deg. F,92 deg. F ,23 % ,13.3 volts,5.1 (unk),176 degrees,10 mph,663 w/m2,17375785
-120.02428,38.85445,2922,BARON,18012692,2023/07/24 20:02:31+00,AA102746,042616,6336,,38.85445,-120.02428,CA,El Dorado,USFS,05,LAKE TAHOE BASIN MU,,A,1.49 inches,4 mph,167 degrees ,79 deg. F,92 deg. F ,21 % ,13.3 volts,5.4 (unk),120 degrees,10 mph,715 w/m2,18012691
-149.75678,60.49355,2958,BROADVIEW,17003051,2023/07/24 19:55:04+00,32494390,500902,631,"FIRE WX ZONE: 31
LOCATED AT BROADVIEW STATION ON KENAI LAKE.",60.49355,-149.75678,AK,Kenai Peninsula,USFS,10,CHUGACH NF,SEWARD RD,A,4.08 inches,1 mph,54 degrees ,68 deg. F,72 deg. F ,66 % ,13.5 volts,14.6 (unk),171 degrees,7 mph,466 w/m2,17003050
-103.926,43.76629,2962,BKF1 PORTABLE,17272116,2023/07/24 19:55:14+00,327FE5D6,,5582,,43.76629,-103.926,SD,Custer,USFS,02,BLACK HILLS NF,SO,A,10.56 inches,8 mph,181 degrees ,89 deg. F,95 deg. F ,27 % ,13.1 volts,6.4 (unk),191 degrees,18 mph,NO DATA,17272114
-84.13086,34.60866,2974,CAMP MERRILL,17068338,2023/07/24 17:05:05+00,327314CE,091201,2021,,34.60866,-84.13086,GA,Lumpkin,USFS,08,CHATTAHOOCHEE&OCONEE,BLUE RIDGE,A,NO DATA,NO DATA,NO DATA,NO DATA,NO DATA,NO DATA,NO DATA,NO DATA,NO DATA,NO DATA,NO DATA,17068338
-121.3827,40.10952,2990,HUMBUG SUMMIT,17782574,2023/07/24 17:21:14+00,324D90C2,040918,6714,,40.10952,-121.3827,CA,Plumas,USFS,05,LASSEN NF,ALMANOR RD,A,16.83 inches,10 mph,197 degrees ,69 deg. F,88 deg. F ,17 % ,13.4 volts,4.6 (unk),212 degrees,19 mph,614 w/m2,17782573
-115.19827,35.2022700000001,2999,OX RANCH,18331148,2023/07/24 18:35:01+00,32D5F1A4,,4324,,35.20227,-115.19827,CA,San Bernardino,NPS,PACIFIC WEST,DEATH VALLEY NP,,A,13.14 inches,5 mph,210 degrees ,92 deg. F,NO DATA,19 % ,13.1 volts,NO DATA,191 degrees,14 mph,763 w/m2,18331147
-111.11742,37.9093300000001,3009,CIRCLE CLIFFS,19052302,2023/07/24 18:36:54+00,32B6AA36,,6554,,37.90933,-111.11742,UT,Garfield,BLM,R7 Upper CO Basin,KANAB,Kanab Headquaters,A,44.64 inches,0 mph,0 degrees ,90 deg. F,NO DATA,15 % ,12 volts,NO DATA,0 degrees,0 mph,1094 w/m2,19052302
-119.64901,34.4614,3027,MONTECITO,17029176,2023/07/24 19:47:14+00,3237E2AC,045218,1619,RAWS site located on the lower one-third of a south facingslope on a small bench. Fifty feet north of the site arepower lines. Fuels are predominantly continuous chamiseand ceanothus. There are small rock outcroppings boardingthe site.,34.4614,-119.64901,CA,Santa Barbara,USFS,05,LOS PADRES NF,SANTA BARBARA RD,A,51.64 inches,2 mph,191 degrees ,85 deg. F,104 deg. F ,52 % ,13.2 volts,5.9 (unk),187 degrees,6 mph,645 w/m2,17029175
-115.91667,48.4666700000001,3030,TROY,17025062,2023/07/24 17:07:44+00,327392DA,240112,1950,"VALLEY SITEFIRE WX FORECAST ZONE 104Troy Airport, troy mt",48.46667,-115.91667,MT,Lincoln,USFS,01,KOOTENAI NF,THREE RIVERS RD,A,10.07 inches,2 mph,84 degrees ,79 deg. F,98 deg. F ,36 % ,13.9 volts,7.9 (unk),95 degrees,5 mph,616 w/m2,17025060
-81.3644399999999,26.1686100000001,3049,PANTHER EAST,17494562,2023/07/24 17:11:34+00,32810058,086405,15,,26.16861,-81.36444,FL,Collier,FWS,REGION 4,FLORIDA PANTHER NWR,,A,27.45 inches,5 mph,204 degrees ,96 deg. F,NO DATA,49 % ,12.3 volts,NO DATA,239 degrees,10 mph,645 w/m2,17494560
-151.08722,64.3178100000001,3053,WEIN LAKE,16784684,2023/07/24 17:10:31+00,324351B4,500715,1110,,64.31781,-151.08722,AK,Denali,BLM,R11 Alaska,ALASKA FIRE SERVICE,WASHINGTON D.C.,A,5.51 inches,3 mph,184 degrees ,71 deg. F,NO DATA,73 % ,13.1 volts,NO DATA,47 degrees,3 mph,140 w/m2,16784683
-152.30583,63.8875600000001,3063,LAKE MINCHUMINA,16902702,2023/07/24 17:21:33+00,FA613756,500623,740,,63.88756,-152.30583,AK,Denali,NPS,ALASKA,DENALI NP,,A,2.16 inches,1 mph,205 degrees ,71 deg. F,NO DATA,65 % ,13.4 volts,NO DATA,237 degrees,5 mph,280 w/m2,16902701
-121.95083,37.20417,3080,LOS GATOS,17112094,2023/07/24 18:32:31+00,CA4A56A8,043913,1842,,37.20417,-121.95083,CA,Santa Clara,S&PF,CALIFORNIA,SANTA CLARA COUNTY,FIRE DEPT,A,41.77 inches,5 mph,24 degrees ,79 deg. F,91 deg. F ,41 % ,13.4 volts,7.1 (unk),27 degrees,10 mph,804 w/m2,17112093
-76.9318299999999,35.52081,3089,BEAUFORT,17377827,2023/07/24 16:13:14+00,4071E710,317801,55,,35.52081,-76.93183,NC,Beaufort,S&PF,NORTH CAROLINA,DIV. OF FOREST RES.,D-4 NEW BERN,A,10.13 inches,3 mph,111 degrees ,87 deg. F,97 deg. F ,68 % ,13.3 volts,14.3 (unk),44 degrees,7 mph,463 w/m2,17377826
-112.18486,37.32322,3098,DEER SPRINGS POINT (DEER),19241738,2023/07/24 17:44:44+00,3257C672,,6938,,37.32322,-112.18486,UT,Kane,BLM,R7 Upper CO Basin,UTAH STATE OFFICE,ESCALANTE NM,A,63.71 inches,5 mph,238 degrees ,81 deg. F,NO DATA,28 % ,12 volts,NO DATA,211 degrees,13 mph,682 w/m2,19241738
-156.56583,20.5222200000001,3102,KANELOA,17266461,2023/07/24 13:53:27+00,32793370,,815,Surrounding area around station is barren. Sparse grassesand 10-15' kiawe trees 50' from station.,20.52222,-156.56583,HI,Maui,S&PF,HAWAII,KAHOOLAWE ISLAND RC,,A,NO DATA,NO DATA,NO DATA,NO DATA,NO DATA,NO DATA,NO DATA,NO DATA,NO DATA,NO DATA,NO DATA,17266461
-118.66545,36.2240200000001,3106,MTN HOME,19118867,2023/07/24 17:20:24+00,32A151CA,044734,7030,"Station is located in Mountain Home Demonstration Forest, on top of a ridge line, in fuel model Y.  It was burned over and destroyed on 9/13/2020 and replaced on the same location 11/19/2020",36.22402,-118.66545,CA,Tulare,S&PF,CALIFORNIA,CDF,,A,47.35 inches,3 mph,113 degrees ,80 deg. F,92 deg. F ,31 % ,13.6 volts,7.5 (unk),116 degrees,10 mph,668 w/m2,19118865
-75.5340199999999,35.24611,3110,BUXTON,19835399,2023/07/24 18:30:34+00,32B83B3C,315407,18,,35.24611,-75.53402,NC,Dare,NPS,SOUTHEAST,GREAT SMOKEY MTNS NP,NC-CHP,A,36.99 inches,3 mph,80 degrees ,82 deg. F,91 deg. F ,74 % ,13.9 volts,10.5 (unk),99 degrees,8 mph,645 w/m2,19835398
-122.93367,41.59912,3188,QUARTZ HILL,17101610,2023/07/24 18:28:04+00,CA20302E,040239,4225,,41.59912,-122.93367,CA,Siskiyou,S&PF,CALIFORNIA,CDF,SISKIYOU UNIT,A,16.38 inches,6 mph,278 degrees ,75 deg. F,90 deg. F ,27 % ,13.4 volts,5 (unk),266 degrees,12 mph,811 w/m2,17101608
-116.19521,43.60378,3203,NWS IWOS 4 (BSU STADIUM),17508894,2023/07/24 19:53:51+00,CA5065FE,,2710,,43.60378,-116.19521,ID,Ada,NWS,,,,A,28.42 inches,0 mph,172 degrees ,86 deg. F,NO DATA,30 % ,13.6 volts,NO DATA,111 degrees,0 mph,0 w/m2,17508894
-117.94717,34.1261400000001,3211,SANTA FE DAM,17111101,2023/07/24 19:57:03+00,CA4A80C0,045437,500,"Within the Santa Fe Dam Complex, alluvial fan south of Azusa canyon.",34.12614,-117.94717,CA,Los Angeles,S&PF,CALIFORNIA,LOS ANGELES COUNTY,,A,17.15 inches,7 mph,246 degrees ,97 deg. F,114 deg. F ,35 % ,13.2 volts,5 (unk),227 degrees,13 mph,772 w/m2,17111101
-81.6199999999999,38.2002800000001,3215,BEE MOUNTAIN,17467675,2023/07/24 17:17:14+00,90005090,463802,1353,,38.20028,-81.62,WV,Kanawha,S&PF,WEST VIRGINIA,NOT APPLICABLE,D5,A,26.05 inches,4 mph,271 degrees ,85 deg. F,NO DATA,55 % ,13.6 volts,NO DATA,243 degrees,9 mph,232 w/m2,17467675
-121.42194,42.97639,3246,HOYT CREEK,17001263,2023/07/24 18:42:14+00,326155AE,353343,5445,FIRE WX FORECAST ZONE:  624,42.97639,-121.42194,OR,Klamath,USFS,06,Fremont-Winema NF,CHEMULT RD,A,5.28 inches,8 mph,196 degrees ,74 deg. F,NO DATA,32 % ,13.4 volts,NO DATA,177 degrees,19 mph,795 w/m2,17001262
-122.14167,37.35472,3256,LOS ALTOS,17138203,1900/01/01 00:00:00+00,CA41F5F8,043912,539,,37.35472,-122.14167,CA,Santa Clara,S&PF,CALIFORNIA,SANTA CLARA COUNTY,FIRE DEPT,A,40.77 inches,1 mph,164 degrees ,55 deg. F,53 deg. F ,85 % ,12.7 volts,14.9 (unk),189 degrees,6 mph,0 w/m2,17138203
-88.45922,44.2874800000001,3258,APPLETON,19385355,2023/07/24 17:07:53+00,32A28E7E,473402,830,,44.28748,-88.45922,WI,Outagamie,S&PF,WISCONSIN,DNR,,A,16.09 inches,2 mph,287 degrees ,80 deg. F,85 deg. F ,53 % ,13.3 volts,12.2 (unk),281 degrees,8 mph,405 w/m2,19385355
-109.876,32.06911,3261,NRAWS 7 (APACHE STATION),17900382,2023/07/24 19:51:32+00,15C0FA9C,QPSA3,4147,,32.06911,-109.876,AZ,Cochise,NWS,,,Tucson WFO,A,15.32 inches,0 mph,174 degrees ,102 deg. F,119 deg. F ,14 % ,13.9 volts,0 (unk),252 degrees,0 mph,1086 w/m2,17900382
-121.01333,46.4950000000001,3275,SEDGE RIDGE,16878384,2023/07/24 17:09:54+00,300070CE,452306,4300,,46.495,-121.01333,WA,Yakima,S&PF,WASHINGTON,DEPT. OF NATURAL RES,SOUTHEAST,A,13 inches,12 mph,303 degrees ,66 deg. F,NO DATA,41 % ,13.5 volts,NO DATA,299 degrees,18 mph,674 w/m2,16878383
-117.01222,33.09139,3302,SAN PASQUAL,17568787,2023/07/24 19:50:33+00,CA803678,045746,255,,33.09139,-117.01222,CA,San Diego,S&PF,CALIFORNIA,,San Diego Gas & Elec,A,22.37 inches,6 mph,214 degrees ,94 deg. F,110 deg. F ,44 % ,13.5 volts,8.3 (unk),237 degrees,11 mph,867 w/m2,17568786
-124.05083,41.5436100000001,3311,KLAMATH,19703046,2023/07/24 17:06:54+00,32B57582,,3,,41.54361,-124.05083,CA,Del Norte,S&PF,CALIFORNIA,,Pacific Power,A,40.82 inches,2 mph,290 degrees ,71 deg. F,63 deg. F ,71 % ,13.5 volts,24.2 (unk),160 degrees,7 mph,580 w/m2,19703046
-81.92697,30.41853,3320,JAX DISTRICT,19784454,2023/07/21 18:31:15+00,32B8D61C,081501,135,,30.41853,-81.92697,FL,Duval,S&PF,FLORIDA,DIVISION OF FORESTRY,,A,NO DATA,NO DATA,NO DATA,NO DATA,NO DATA,NO DATA,NO DATA,NO DATA,NO DATA,NO DATA,NO DATA,19784454
-118.606,34.13624,3323,TOPANGA,17570084,2023/07/24 19:57:54+00,2E9123E4,,1600,"Ridgeline at south western corner of San Fernando Valley, west of Top O' Topanga overlook.",34.13624,-118.606,CA,Los Angeles,S&PF,CALIFORNIA,LOS ANGELES COUNTY,,A,31.26 inches,11 mph,171 degrees ,98 deg. F,119 deg. F ,36 % ,13.2 volts,5.7 (unk),173 degrees,16 mph,898 w/m2,17570083
-97.3709699999999,29.9505,3326,JOHN CRAFT,19175179,2023/07/24 18:39:54+00,32D0CD2C,,498,,29.9505,-97.37097,TX,Bastrop,S&PF,TEXAS,,BASTROP,A,16.07 inches,5 mph,194 degrees ,99 deg. F,114 deg. F ,38 % ,13.1 volts,7.4 (unk),208 degrees,13 mph,760 w/m2,19175178
-121.38623,39.38075,3331,BANGOR,17090096,2023/07/24 19:51:04+00,CA2162A8,041201,803,,39.38075,-121.38623,CA,Butte,S&PF,CALIFORNIA,CDF,BUTTE UNIT,A,37.44 inches,6 mph,215 degrees ,86 deg. F,101 deg. F ,30 % ,13.3 volts,5.5 (unk),188 degrees,15 mph,949 w/m2,17090094
-81.47889,26.1716700000001,3358,PANTHER WEST,17494817,2023/07/24 17:11:44+00,3281132E,086406,15,,26.17167,-81.47889,FL,Collier,FWS,REGION 4,FLORIDA PANTHER NWR,,A,27.97 inches,4 mph,234 degrees ,95 deg. F,NO DATA,49 % ,13.2 volts,NO DATA,252 degrees,8 mph,718 w/m2,17494815
-121.67354,45.0395800000001,3366,MT. WILSON,16781626,2023/07/24 18:33:54+00,5211C70E,350916,4002,"STATION SITS IN A LARGE CLEAR-CUT AREA ON THE N-S SLOPE OF
AN E-W RIDGE. MT.WILSON IS 2 MILES TO THE NW. BEAVER BUTTE
LOOKOUT IS 3 MILES TO THE NE. DEADMAN SPRING IS 1 MILE TO
THE S. CLEARCUT AREA IS SURROUNDED BY PINE TREES.",45.03958,-121.67354,OR,Wasco,BIA,Northwest,Warm Springs Agency,,A,17.05 inches,3 mph,9 degrees ,69 deg. F,NO DATA,39 % ,13.5 volts,NO DATA,84 degrees,12 mph,844 w/m2,16781624
-115.6145,44.08056,3367,NRAWS 9 (LOWMAN IDT),17905459,2023/07/24 19:51:37+00,15C108E2,,3852,Sits outside the yard of the Lowman IDT maintenance shed.,44.08056,-115.6145,ID,Ada,NWS,,,Boise WFO,A,0 inches,0 mph,111 degrees ,78 deg. F,78 deg. F ,46 % ,13.4 volts,9.5 (unk),248 degrees,0 mph,168 w/m2,17905458
-82.6504,35.8030000000001,3369,7 MILE RIDGE,17426730,2023/07/24 18:37:18+00,40705664,313302,2061,"Station on small grassy knoll with young pine regeneration.
Site representative of midslope conditions in FDR area.",35.803,-82.6504,NC,Madison,S&PF,NORTH CAROLINA,DIV. OF FOREST RES.,ASHEVILLE D-1,A,25.89 inches,7 mph,272 degrees ,83 deg. F,111 deg. F ,47 % ,13.3 volts,5.4 (unk),275 degrees,14 mph,925 w/m2,17426730
-117.75336,33.5359700000001,3377,ALISO LAGUNA,18985487,2023/07/24 19:50:54+00,CA80539E,045509,820,,33.53597,-117.75336,CA,Orange,S&PF,CALIFORNIA,,San Diego Gas & Elec,A,22.03 inches,9 mph,268 degrees ,75 deg. F,93 deg. F ,77 % ,13.4 volts,10.7 (unk),260 degrees,12 mph,918 w/m2,18985486
-85.38028,36.7955600000001,3408,ALPINE,17361439,2023/07/24 19:56:03+00,403016B2,159501,853,,36.79556,-85.38028,KY,,S&PF,KENTUCKY,DIVISION OF FORESTRY,,A,29.78 inches,5 mph,225 degrees ,91 deg. F,107 deg. F ,50 % ,13.5 volts,7 (unk),215 degrees,10 mph,856 w/m2,17361438
-123.48491,39.7023300000001,3418,LAYTONVILLE,17270575,2023/07/24 18:29:03+00,CA2BC302,041019,1820,"SIte is located above the Laytonville Fire Station on a knol
by water tank.",39.70233,-123.48491,CA,Mendocino,S&PF,CALIFORNIA,CDF,MENDOCINO UNIT,A,65.47 inches,2 mph,328 degrees ,82 deg. F,96 deg. F ,32 % ,13.4 volts,8.5 (unk),327 degrees,6 mph,770 w/m2,17270573
-90.1983299999999,33.2211100000001,3428,HOLMES,17444891,2023/07/24 17:09:24+00,3910D5C8,223501,22,,33.22111,-90.19833,MS,Holmes,S&PF,MISSISSIPPI,FORESTRY COMMISSION,Fire Services,A,22.21 inches,0 mph,99 degrees ,91 deg. F,NO DATA,51 % ,13.3 volts,NO DATA,20 degrees,0 mph,775 w/m2,17444890
-121.35306,43.24278,3432,TIMOTHY,16972843,2023/07/24 17:08:44+00,326146D8,353337,6099,Station is located on top of a ridge in a lodgepole,43.24278,-121.35306,OR,Klamath,USFS,06,Fremont-Winema NF,SILVER LAKE RD,A,5.32 inches,6 mph,233 degrees ,66 deg. F,NO DATA,55 % ,13.5 volts,NO DATA,253 degrees,12 mph,639 w/m2,16972842
-84.60194,38.76917,3442,CRITTENDEN,17361187,2023/07/24 19:56:44+00,403005C4,150703,935,,38.76917,-84.60194,KY,Grant,S&PF,KENTUCKY,DIVISION OF FORESTRY,,A,18.87 inches,5 mph,75 degrees ,85 deg. F,90 deg. F ,62 % ,13.2 volts,9.5 (unk),68 degrees,14 mph,610 w/m2,17361186
-92.79556,45.73972,3473,LIND,17452323,2023/07/24 17:06:33+00,5370C664,470602,813,,45.73972,-92.79556,WI,Burnett,S&PF,WISCONSIN,DNR,SPOONER DG,A,13.19 inches,2 mph,294 degrees ,85 deg. F,98 deg. F ,47 % ,13.2 volts,9.7 (unk),260 degrees,8 mph,718 w/m2,17452322
-84.4244399999999,30.0105600000001,3477,ST. MARKS (WEST),17411096,2023/07/24 19:46:54+00,8378B70A,082203,50,,30.01056,-84.42444,FL,,FWS,REGION 4,ST MARKS NWR,,A,39.69 inches,6 mph,226 degrees ,88 deg. F,99 deg. F ,64 % ,13.2 volts,9.9 (unk),195 degrees,14 mph,682 w/m2,17411095
-115.05836,48.89781,3494,EUREKA,17022762,2023/07/24 17:15:33+00,3272F5C6,240110,2632,"FIRE WX FORECAST ZONE: 101
VALLEY
located at eureka r.s. eureka mt/  valley bottom",48.89781,-115.05836,MT,Lincoln,USFS,01,KOOTENAI NF,REXFORD,A,4.03 inches,3 mph,281 degrees ,79 deg. F,92 deg. F ,34 % ,13.9 volts,5.8 (unk),294 degrees,7 mph,450 w/m2,17022762
-118.1968,34.4463900000001,3503,ACTON,17110339,2023/07/24 19:54:53+00,CA4A7044,045438,2600,"Northside of San Gabriels, in foothills of Pinyon/Juniper.",34.44639,-118.1968,CA,Los Angeles,S&PF,CALIFORNIA,LOS ANGELES COUNTY,,A,.42 inches,12 mph,265 degrees ,102 deg. F,112 deg. F ,22 % ,13.1 volts,24.4 (unk),260 degrees,19 mph,896 w/m2,17110339
-81.54444,37.40333,3515,ELKHORN,17467416,2023/07/24 17:17:04+00,900043E6,465201,2100,"On flat, old strip mine site, top of ridge.  Near the Mount View High School.",37.40333,-81.54444,WV,McDowell,S&PF,WEST VIRGINIA,NOT APPLICABLE,D4,A,26.29 inches,4 mph,297 degrees ,80 deg. F,NO DATA,48 % ,13.9 volts,NO DATA,310 degrees,10 mph,783 w/m2,17467416
-120.17115,39.0835000000001,3545,HOMEWOOD,17705751,2023/07/24 17:19:24+00,91C0165C,041909,7121,,39.0835,-120.17115,CA,Placer,S&PF,CALIFORNIA,,,A,2.58 inches,7 mph,216 degrees ,67 deg. F,71 deg. F ,38 % ,13.8 volts,6.3 (unk),244 degrees,19 mph,538 w/m2,17705751
-88.59972,31.13694,3598,GREENE,17402396,2023/07/24 17:14:04+00,391085B4,227601,156,,31.13694,-88.59972,MS,Greene,S&PF,MISSISSIPPI,FORESTRY COMMISSION,Fire Services,A,23.98 inches,5 mph,147 degrees ,88 deg. F,NO DATA,50 % ,13.2 volts,NO DATA,148 degrees,12 mph,736 w/m2,17402395
-113.71722,47.5361100000001,3612,CONDON WORK CENTER,17024059,2023/07/24 17:08:34+00,3247C1EC,241502,3684,"VALLEY
FIRE WX ZONE: 105",47.53611,-113.71722,MT,Missoula,USFS,01,FLATHEAD NF,SWAN LAKE RD,A,5.98 inches,2 mph,299 degrees ,87 deg. F,95 deg. F ,33 % ,13.3 volts,9.7 (unk),265 degrees,6 mph,579 w/m2,17024057
-89.12472,32.7980600000001,3621,NESHOBA,17402139,2023/07/24 17:13:54+00,39107530,224601,459,,32.79806,-89.12472,MS,Neshoba,S&PF,MISSISSIPPI,FORESTRY COMMISSION,Fire Services,A,40.55 inches,4 mph,280 degrees ,88 deg. F,NO DATA,49 % ,13.3 volts,NO DATA,247 degrees,11 mph,891 w/m2,17402138
-89.72139,30.2441700000001,3631,FRITCHIE PORTABLE,19164689,2023/07/24 17:17:53+00,32D07EA2,16502,3,,30.24417,-89.72139,LA,St. Tammany,FWS,REGION 4,BIG BRANCH NWR,,A,20.56 inches,1 mph,39 degrees ,93 deg. F,116 deg. F ,39 % ,13 volts,8.9 (unk),311 degrees,8 mph,848 w/m2,19164688
-118.2134,34.19422,3634,SAN RAFAEL HILLS,17434162,2023/07/24 19:56:54+00,CA2940E2,045451,1770,"Hilltop in San Rafael Hills. South of Descanso Gardens, native vegetation.",34.19422,-118.2134,CA,Los Angeles,S&PF,CALIFORNIA,LOS ANGELES COUNTY,,A,31.72 inches,4 mph,191 degrees ,94 deg. F,114 deg. F ,41 % ,13.2 volts,6.1 (unk),202 degrees,11 mph,908 w/m2,17434161
-112.53042,37.0375500000001,3682,KFO KANAB QD,18668303,2023/07/23 13:37:45+00,3237C440,,4915,"This station is located near Kanab High School in the town of Kanab, Utah. It sits within 100 meters of Kanab Creek, a large riparian zone.",37.03755,-112.53042,UT,Kane,BLM,R7 Upper CO Basin,KANAB,KANAB FIELD OFFICE,A,NO DATA,NO DATA,NO DATA,NO DATA,NO DATA,NO DATA,NO DATA,NO DATA,NO DATA,NO DATA,NO DATA,18668303
-84.22156,30.43906,3689,FFS PORTABLE #1,19743239,2023/07/24 19:59:24+00,32B4B266,080890,201,,30.43906,-84.22156,FL,,S&PF,FLORIDA,DIVISION OF FORESTRY,Florida FS,A,116.61 inches,3 mph,36 degrees ,81 deg. F,83 deg. F ,82 % ,12.9 volts,16.9 (unk),41 degrees,8 mph,198 w/m2,19743239
-153.3465,63.43397,3692,TELIDA,16915234,2023/07/24 19:53:00+00,3390720E,500620,650,,63.43397,-153.3465,AK,Yukon-Koyukuk,S&PF,ALASKA,STATE OF ALASKA,,A,2.43 inches,5 mph,209 degrees ,74 deg. F,NO DATA,57 % ,13.4 volts,NO DATA,177 degrees,9 mph,527 w/m2,16915233
-119.51311,34.44453,3700,CARPINTERIA,19333649,2023/07/24 18:42:14+00,32A1AF9C,045228,1770,,34.44453,-119.51311,CA,Santa Barbara,S&PF,CALIFORNIA,SANTA BARBARA COUNTY,SBC Fire,A,51.05 inches,1 mph,270 degrees ,89 deg. F,107 deg. F ,48 % ,13.1 volts,7.5 (unk),238 degrees,5 mph,868 w/m2,19333646
-158.15488,21.4807200000001,3701,WAIANAE VALLEY,17369897,2023/07/24 18:37:14+00,487005DA,492012,866,"STATION SITS JUST EAST OF THE TOWN OF WAIANAE UP IN THE
VALLEY ON THE NORTH MID-SLOPE, JUST OFF ACCESS ROAD TO THE
EAST.  TWO GATES, NEED KEY, CONTACT Ryan Peralta 808-292-5645
POC IS Michael Walker (808)348-5834  RAWS IN ENLOSURE, GATE LOCK
COMBO IS 3958  HIGH DATA RATE, 300 BAUD, 10 SEC. WINDOW",21.48072,-158.15488,HI,Honolulu,S&PF,HAWAII,DEPT OF LAND AND NR,DOFAWOA,A,27.49 inches,3 mph,264 degrees ,81 deg. F,87 deg. F ,65 % ,13.4 volts,12 (unk),241 degrees,10 mph,NO DATA,17369897
-92.27611,35.32667,3707,GUY,17433115,2023/07/24 17:10:24+00,0720236C,033202,610,"In a small field about 200 yards North of the HWY, surround treeline with small hardwood trees and mostly pasture land in the surrounding area.",35.32667,-92.27611,AR,Faulkner,S&PF,ARKANSAS,ARKANSAS FORESTRY,,A,41.61 inches,3 mph,255 degrees ,91 deg. F,115 deg. F ,53 % ,13.2 volts,8.9 (unk),255 degrees,7 mph,810 w/m2,17433114
-114.09675,46.9266400000001,3721,SMOKE 216,18514690,1900/01/01 00:00:00+00,32D342E4,,3201,,46.92664,-114.09675,MT,Missoula,USFS,WO,MTDC,,D,NO DATA,NO DATA,NO DATA,NO DATA,NO DATA,NO DATA,NO DATA,NO DATA,NO DATA,NO DATA,NO DATA,18514690
-84.96361,36.07444,3726,CROSSVILLE,17395749,2023/07/24 17:06:33+00,02608762,405001,1635,,36.07444,-84.96361,TN,Cumberland,S&PF,TENNESSEE,DIVISION OF FORESTRY,Cumberland,A,42.03 inches,2 mph,107 degrees ,83 deg. F,NO DATA,51 % ,13.3 volts,NO DATA,103 degrees,7 mph,898 w/m2,17395748
-119.51715,48.2587600000001,3740,KRAMER,16782918,2023/07/24 17:08:54+00,5210650C,452040,2720,"STATION SITE OF VALLEY WHERE KEN KRAMER LIVES. SPIEGELBERG
LAKE TO THE WSW ABOUT ONE HALF MILE. RIMROCK LAKE TO THE NW
ABOUT ONE FOURTH MILE. GOOSE LAKE TO THE NE ABOUT 3/4 MILE.
CASCADE MOUNTAIN RANGE VISUAL TO THE WEST 20 TO 25 MILES.",48.25876,-119.51715,WA,Okanogan,BIA,Northwest,Colville Agency,,A,8.31 inches,7 mph,181 degrees ,79 deg. F,NO DATA,29 % ,13.4 volts,NO DATA,188 degrees,12 mph,634 w/m2,16782916
-80.86889,39.4458300000001,3751,CONAWAY LAKE,17466650,2023/07/24 17:16:41+00,90002600,461601,1190,,39.44583,-80.86889,WV,Tyler,S&PF,WEST VIRGINIA,NOT APPLICABLE,D6,A,23.87 inches,6 mph,262 degrees ,83 deg. F,NO DATA,54 % ,13.6 volts,NO DATA,178 degrees,12 mph,812 w/m2,17466650
-122.83706,38.7350900000001,3764,HAWKEYE,17094446,2023/07/24 19:56:33+00,CA4565A0,042010,2024,Inland coastal oak woodland-grassland/grazing. Flat ridgetop,38.73509,-122.83706,CA,Sonoma,S&PF,CALIFORNIA,CDF,LAKE-NAPA-SONOMA UNI,A,48.56 inches,6 mph,215 degrees ,78 deg. F,94 deg. F ,37 % ,13.3 volts,7 (unk),202 degrees,11 mph,988 w/m2,17094444
-121.44611,48.5394400000001,3772,MARBLEMOUNT,17384480,2023/07/24 17:12:14+00,FA64739C,451504,357,,48.53944,-121.44611,WA,,NPS,PACIFIC WEST,NORTH CASCADES NP,,A,1.38 inches,0 mph,24 degrees ,62 deg. F,63 deg. F ,87 % ,13.8 volts,.2 (unk),182 degrees,5 mph,98 w/m2,17384479
-120.47759,39.9880600000001,3786,COYOTE,17365035,2023/07/24 13:59:05+00,3286D404,040917,5570,RAWS is located in a clearing above Thompson Valley.,39.98806,-120.47759,CA,Plumas,USFS,05,PLUMAS NF,BECKWOURTH RD,A,NO DATA,NO DATA,NO DATA,NO DATA,NO DATA,NO DATA,NO DATA,NO DATA,NO DATA,NO DATA,NO DATA,17365035
-99.8385499999999,48.8092800000001,3794,TURTLE MOUNTAIN,17550108,2023/07/24 17:22:33+00,FDD00590,320501,1859,,48.80928,-99.83855,ND,Rolette,BIA,Great Plains,Turtle Mt. Agency,,A,3.61 inches,11 mph,105 degrees ,80 deg. F,NO DATA,59 % ,13.4 volts,NO DATA,98 degrees,16 mph,736 w/m2,17550107
-91.11806,37.1805600000001,3826,CARR CREEK,16935968,1900/01/01 00:00:00+00,3233E796,237401,1400,,37.18056,-91.11806,MO,,USFS,09,MARK TWAIN NF,NC EXP STATION,A,23.37 inches,0 mph,285 degrees ,66 deg. F,NO DATA,95 % ,12.8 volts,NO DATA,0 degrees,0 mph,NO DATA,16935967
-80.9991699999999,37.52639,3840,PIPESTEM,17468184,2023/07/24 13:17:35+00,9000767C,465401,2725,,37.52639,-80.99917,WV,Summers,S&PF,WEST VIRGINIA,NOT APPLICABLE,D4,A,NO DATA,NO DATA,NO DATA,NO DATA,NO DATA,NO DATA,NO DATA,NO DATA,NO DATA,NO DATA,NO DATA,17468184
-111.20186,43.5399200000001,3841,PINE CREEK PASS,17304619,2023/07/24 17:19:03+00,3285C07C,102401,7332,"open area 55 ft off ridgetop, southwest facing slope",43.53992,-111.20186,ID,Teton,USFS,04,CARIBOU/TARGHEE NF,TETON BASIN RD,A,11.42 inches,11 mph,168 degrees ,78 deg. F,NO DATA,31 % ,13.4 volts,NO DATA,167 degrees,18 mph,645 w/m2,17304618
-120.86965,41.2880700000001,3856,RUSH CREEK,17038407,2023/07/24 20:03:14+00,32316476,040312,5543,"Open site, midslope, west aspect, mixed pines & junipers",41.28807,-120.86965,CA,Modoc,USFS,05,MODOC NF,Big Valley,A,5.37 inches,11 mph,204 degrees ,80 deg. F,94 deg. F ,13 % ,13.4 volts,4.3 (unk),214 degrees,22 mph,983 w/m2,17038406
-112.73005,37.03857,3888,KFO PORTABLE 1,18377486,2023/07/24 18:37:53+00,AAB1309C,,5944,Located at Coral Pink Sand Dunes State Park.,37.03857,-112.73005,UT,Kane,BLM,R7 Upper CO Basin,KANAB,Kanab Field Office,A,87.1 inches,2 mph,285 degrees ,88 deg. F,NO DATA,24 % ,12.9 volts,NO DATA,139 degrees,11 mph,769 w/m2,18377486
-117.40528,48.2986100000001,3891,FLOWERY TRAIL,17037619,2023/07/24 18:30:03+00,323194F2,453145,2680,This station is located in the Flowery Trail Seed Orchardon the Newport Ranger District of the Colville National,48.29861,-117.40528,WA,Pend Oreille,USFS,06,COLVILLE NF,NEWPORT RD,A,13.08 inches,4 mph,218 degrees ,84 deg. F,96 deg. F ,26 % ,13.3 volts,6.3 (unk),246 degrees,12 mph,782 w/m2,17037618
-149.78203,60.1324700000001,3923,HARDING ICEFIELD,17431349,2023/07/24 18:43:34+00,FA656210,,4300,Station located on a nunatak within the Harding Icefield.The nunatak is a rocky ridge with a N-S longitudinalorientation.  Site is not vegetated. Bare rock predominates.,60.13247,-149.78203,AK,,NPS,ALASKA,KENAI FJORDS NP,,A,NO DATA,NO DATA,353 degrees ,NO DATA,NO DATA,78 % ,14.4 volts,NO DATA,353.5 degrees,NO DATA,399 w/m2,17431346
-122.7118,38.47848,3939,SANTA ROSA,17089590,2023/07/24 18:29:14+00,CA221336,042009,599,Historic pasture now preserved oak woodland inside City ofSanta Rosa.,38.47848,-122.7118,CA,Sonoma,S&PF,CALIFORNIA,CDF,LAKE-NAPA-SONOMA UNI,A,40.15 inches,5 mph,200 degrees ,73 deg. F,85 deg. F ,47 % ,13.4 volts,10.6 (unk),183 degrees,8 mph,803 w/m2,17089588
-123.82376,40.13838,3940,EEL RIVER CAMP,17270308,2023/07/24 18:28:14+00,CA2AC1F8,040421,476,Station is located at Eel River Conservation Camp.,40.13838,-123.82376,CA,Humboldt,S&PF,CALIFORNIA,CDF,HUMBOLDT-DEL NORTE U,A,63.99 inches,4 mph,62 degrees ,79 deg. F,98 deg. F ,34 % ,13.3 volts,10.7 (unk),69 degrees,13 mph,751 w/m2,17270306
-76.711,40.4110000000001,3993,MANADA GAP,18499090,2023/07/24 17:18:14+00,3333E634,360432,625,,40.411,-76.711,PA,Dauphin,S&PF,PENNSYLVANIA,,,A,21.22 inches,4 mph,165 degrees ,78 deg. F,84 deg. F ,75 % ,13.3 volts,16.5 (unk),220 degrees,10 mph,401 w/m2,18499090
-69.84694,46.29722,3995,TURNER BROOK,17473305,2023/07/24 19:59:54+00,D200001C,172501,1280,"Located near Turner Brook, at site of an established loggingcamp.  Site was leveled, graded, pad is about 125 x 125 feetExcellent location, wind exposure.  Surrounding veg is fir-spruce, mixed with hardwoods.  Not recently cut over.",46.29722,-69.84694,ME,Somerset,S&PF,MAINE,NOT APPLICABLE,,A,19.16 inches,4 mph,14 degrees ,82 deg. F,NO DATA,44 % ,13.2 volts,NO DATA,35 degrees,10 mph,707 w/m2,17473303
-66.88222,17.95417,3996,GUANICA,17474074,2023/07/24 17:09:45+00,78A02692,512901,17,,17.95417,-66.88222,PR,,S&PF,PUERTO RICO,,,A,12.79 inches,7 mph,118 degrees ,91 deg. F,NO DATA,58 % ,13.1 volts,NO DATA,125 degrees,16 mph,979 w/m2,17474074
-123.59106,40.18602,4039,ALDER POINT,17095984,2023/07/24 19:51:24+00,CA459524,040423,1059,Located in grassy area at southern end of parking lot,40.18602,-123.59106,CA,Humboldt,S&PF,CALIFORNIA,CDF,HUMBOLDT UNIT,A,52.02 inches,2 mph,39 degrees ,81 deg. F,95 deg. F ,37 % ,13.3 volts,8.1 (unk),20 degrees,9 mph,869 w/m2,17095982
-154.32,60.61028,4053,SNIPE LAKE,17533993,2023/07/24 20:04:33+00,328041A8,,2315,,60.61028,-154.32,AK,,NPS,ALASKA,LAKE CLARK NP,,A,NO DATA,NO DATA,148 degrees ,NO DATA,NO DATA,38 % ,14.2 volts,NO DATA,146.8 degrees,NO DATA,529 w/m2,17533990
-122.95182,41.7749600000001,4066,COLLINS BALDY,16954925,2023/07/24 18:31:34+00,323881D8,040237,5476,"Mountain Top Site, 60' south of Collins Baldy Lookout.",41.77496,-122.95182,CA,Siskiyou,USFS,05,KLAMATH NF,OAK KNOLL,A,0 inches,5 mph,300 degrees ,67 deg. F,81 deg. F ,34 % ,14 volts,6.1 (unk),340 degrees,10 mph,846 w/m2,16954924
-155.62611,19.7458300000001,4071,PTA RANGE 17,17428499,2023/07/24 19:49:04+00,3279630C,,5690,"SITE IS 75 YDS OFF MAIN ROAD NEXT TO '76 HELOCOPTER CRASH
SITE. LARGE WHITE MEMORIAL CROSS IS 100 FEET TO THE S.W.
THIS STATION REPLACED PTA PORTABLE.",19.74583,-155.62611,HI,Hawaii,DOD,USA,SCHOFIELD BARRACKS,,A,10.32 inches,9 mph,318 degrees ,77 deg. F,80 deg. F ,29 % ,13.4 volts,7.7 (unk),305 degrees,15 mph,NO DATA,17428499
-158.43172,67.57338,4074,KALUICH,18268951,2023/07/24 17:22:33+00,3961B778,,2486,,67.57338,-158.43172,AK,,NPS,ALASKA,NOATAK NP,,A,7.37 inches,2.7 mph,42 degrees ,67.2 deg. F,NO DATA,60.4 % ,13.1 volts,NO DATA,49 degrees,4.1 mph,219.7 w/m2,18268950
-162.99453,67.1414300000001,4075,MT. NOAK,18033687,2023/07/24 18:39:43+00,39616110,,809,,67.14143,-162.99453,AK,,NPS,ALASKA,,,A,5.28 inches,4.9 mph,334.10001 degrees ,68 deg. F,NO DATA,58.8 % ,13.3 volts,NO DATA,318.10001 degrees,6.3 mph,247.7 w/m2,18033686
-161.49197,68.31672,4079,KUGURUROK,18606603,2023/07/24 18:23:23+00,396203F8,,1020,,68.31672,-161.49197,AK,,NPS,ALASKA,NOATAK NP,Western Arctic Pklnd,A,8.29 inches,1.8 mph,12.6 degrees ,67.9 deg. F,NO DATA,58.5 % ,13.6 volts,NO DATA,46.3 degrees,3.6 mph,367.39999 w/m2,18606602
-155.013,67.9835,4080,KILLIK PASS,18269973,2023/07/24 17:22:41+00,3961C1E8,,4360,,67.9835,-155.013,AK,,NPS,ALASKA,GATES OF ARCTIC NP,,A,4.99 inches,8.2 mph,24 degrees ,60.7 deg. F,NO DATA,55.2 % ,13.4 volts,NO DATA,18.2 degrees,9.3 mph,272.5 w/m2,18269972
-150.585,67.7142000000001,4081,CHIMNEY LAKE,18269205,2023/07/24 18:23:11+00,3961F472,,3692,,67.7142,-150.585,AK,,NPS,ALASKA,GATES OF ARCTIC NP,,A,5.83 inches,16.1 mph,58.4 degrees ,63 deg. F,NO DATA,59.1 % ,13.4 volts,NO DATA,54.7 degrees,18.8 mph,250.5 w/m2,18269204
-164.70782,65.8523000000001,4082,SERPENTINE,18079511,2023/07/24 18:38:53+00,39611780,,518,,65.8523,-164.70782,AK,,NPS,ALASKA,BERING LAND NP,,A,6.81 inches,1.3 mph,233.89999 degrees ,57 deg. F,NO DATA,80.8 % ,13.4 volts,NO DATA,209.10001 degrees,3.9 mph,303.39999 w/m2,18079510
-163.56718,67.55015,4083,TAHINICHOK,18033429,2023/07/24 18:39:23+00,396147FC,,966,,67.55015,-163.56718,AK,,NPS,ALASKA,,,A,6.01 inches,6.1 mph,326.29999 degrees ,65 deg. F,NO DATA,63.2 % ,13.3 volts,NO DATA,329.5 degrees,7.4 mph,249.3 w/m2,18033428
-107.40444,39.58694,4084,STORM KING MOUNTAIN,16789066,2023/07/24 19:58:35+00,324AA76C,051508,8793,SITE IS LOCATED ON FINGER RIDGE THAT RUNS FROM NORTH TOSOUTH. BOTH THE EAST/WEST ASPECTS ARE VERY STEEP. THE H-1SITE IS APPROX. 250 YRDS. UP THE RIDGE LINE. ALL VEGITATION,39.58694,-107.40444,CO,Garfield,USFS,02,WHITE RIVER NF,,A,3.65 inches,8 mph,293 degrees ,85 deg. F,NO DATA,26 % ,13.3 volts,NO DATA,299 degrees,16 mph,970 w/m2,16789065
-76.77685,42.52795,4085,BOLTER CREEK,18637334,2023/07/24 17:12:14+00,32B0E720,300971,1608,Middle of pasture on USFS land surrounded by northern hardwoods.,42.52795,-76.77685,NY,Schuyler,USFS,09,GRN MTN & FINGER LKS,03,A,21.12 inches,6 mph,202 degrees ,80 deg. F,94 deg. F ,53 % ,13.3 volts,10.5 (unk),215 degrees,14 mph,845 w/m2,18637333
-141.84737,62.12402,4086,CHICKEN CREEK,17446176,2023/07/24 18:33:03+00,39603396,,5240,,62.12402,-141.84737,AK,,NPS,ALASKA,WRANGLE ST. ALIAS NP,,A,8.39 inches,6.3 mph,284.10001 degrees ,57.8 deg. F,NO DATA,62.6 % ,13.3 volts,NO DATA,285 degrees,7.8 mph,415.70001 w/m2,17446176
-154.3446,67.6243000000001,4088,RAM CREEK,18269464,2023/07/24 17:22:51+00,3961D29E,,4107,,67.6243,-154.3446,AK,,NPS,ALASKA,GATES OF ARCTIC NP,,A,5.92 inches,5.7 mph,38.7 degrees ,62.3 deg. F,NO DATA,49.5 % ,13.2 volts,NO DATA,52.6 degrees,8.3 mph,242.39999 w/m2,18269463
-160.39565,67.99503,4089,SISIAK,18028056,2023/07/24 18:39:33+00,3961548A,,1823,,67.99503,-160.39565,AK,,NPS,ALASKA,NOATAK NP,,A,5.64 inches,0 mph,0 degrees ,67.1 deg. F,NO DATA,54.3 % ,13.1 volts,NO DATA,0 degrees,0 mph,310 w/m2,18028055
